,Affiliate_id,Affiliate_name,Address,City,State,Zip,Country,Website,Phone,Latitude,Longitude
0,3,CrossFit Persist,"165 Amboy Ave, #705",Morganville,NJ,07751,United States,http://www.crossfitpersist.com/,(732) 687-1050,40.3604,-74.2894
1,4,Far North CrossFit,17 Finlayson Street,Whangarei,Northland,0110,New Zealand,http://www.farnorthcrossfit.com,021 022 09234,-35.727,174.3274
2,5,CrossFit Dubuque,3080 Cedar Crest Ct.,Dubuque,IA,52003,United States,http://crossfitdubuque.com/,(563) 552-8423,42.4787,-90.7068
3,6,Ballston CrossFit,1110 North Glebe Rd,Arlington,VA,22201,United States,http://www.ballstoncrossfit.com/,(703) 688-2238,38.8838,-77.1172
4,8,CrossFit Moorabbin,16 Coachranes Road,Moorabbin,VIC,3189,Australia,http://www.crossfitmoorabbin.com,+61 (0)418 565 065,-37.9424,145.0619
5,9,CrossFit Bartlesville,3822 SE Kentucky Suite 13-14,Bartlesville,OK,74006,United States,http://www.crossfitbartlesville.com,(918) 350-0120,36.7552,-95.9355
6,10,Armor CrossFit,"880 Macguire Road, Unit B",Ocoee,FL,34761,United States,http://www.armorcrossfit.com/,(407) 614-8997,28.5562,-81.5432
7,11,CrossFit 5150,1480 E 28th St,Signal Hill,CA,90755,United States,http://www.crossfit5150.com,(714) 883-2182,33.808,-118.1733
8,12,CrossFit Karlstad,Kolvgatan 1A,Karlstad,Värmlands Län,653 41,Sweden,http://www.crossfitkarlstad.se/,+46708282471,59.3896,13.4793
9,14,CrossFit Stolitsa,Butyrskaya 46 Building 1,Moscow,Moscow,119361,Russian Federation,http://cfstolitsa.ru/,79153737403,55.8009,37.5842
10,16,CrossFit Bel Air,350 Granary Road,Forest Hill,MD,21050,United States,http://www.crossfitbelair.com/,(443) 271-1675,39.5684,-76.3603
11,19,CrossFit 603,98 Old Derry Road,Hudson,NH,03051,United States,http://crossfit603.com/,(603) 490-3188,42.8097,-71.413
12,22,CrossFit Honor,5519 Willow Way,Orefield,PA,18069,United States,http://www.crossfithonor.com,(610) 248-8050,40.6061,-75.5943
13,23,Reebok CrossFit Stockport,Reebok Ltd. Pepper Rd,Cheshire,England,SK7558,United Kingdom,False,447595344833,53.3779,-2.1412
14,24,Aliso CrossFit,"6 Journey, Suite 300",Aliso Viejo,CA,92656,United States,http://www.alisocrossfit.com,(949) 215-2220,33.5687,-117.7283
15,27,Fit Strong United CrossFit,118 North Star Street,Victoria,TX,77904,United States,http://fitstrongunitedcrossfit.com/,(361) 648-6696,28.8382,-97.0047
16,29,CrossFit Snaga Escazu,"De la antigua rotonda de Multiplaza de Escazú, 300 mts norte.  Bodegas Roca Azul Center #12",Escazu,San Jose,,Costa Rica,http://www.crossfitescazu.com/,(506) 2215-0608,9.9207,-84.1462
17,31,Sycamore CrossFit,1330 East State Street,Sycamore,IL,60178,United States,http://www.sycamorecrossfit.com/,(815) 375-1010,41.9839,-88.658
18,32,CrossFit Evviva,234 West 6th Ave.,Eugene,OR,97401,United States,http://crossfitevviva.com/,(541) 912-7513,44.053,-123.0963
19,33,CrossFit Getsome365,"4131 Smith St, Ste C",Bacliff,TX,77518,United States,http://www.CrossFitGetSome365.com,(713) 855-7362,29.5042,-94.9974
20,34,CrossFit Colossus,Unit 1/10 Electra Place,Mornington,TAS,7018,Australia,http://crossfitcolossus.com.au/,+61400255351,-42.8581,147.3927
21,36,CrossFit 416,390 Queens Quay W. Unit 114,Toronto,ON,M5V 3A6,Canada,http://www.crossfit416.ca,(416) 901-0416,43.6379,-79.391
22,37,Repel CrossFit,Zollnerstrasse,Bamberg,Bavaria,96052,Germany,False,049-151-424-17100,,
23,39,CrossFit Giant,250 S Van Brunt St.,Englewood,NJ,07631,United States,http://www.crossfitgiant.com/edgewater/,(201) 212-3258,40.8877,-73.9826
24,40,CrossFit North Burlington,1151 Heritage Rd,Burlington,ON,L7L 4Y1,Canada,http://crossfitnorthburlington.ca/,(289) 208-5348,43.3776,-79.7853
25,41,CrossFit Mainz,Ober-Saulheimerstr. 24,Wörrstadt,,55286,Germany,http://www.crossfit-mainz.de/,+49 177 797 2025,49.8536,8.1232
26,42,CrossFit Hyperion,1983 W. 680 N. #5,Pleasant Grove,UT,84062,United States,http://www.crossfithyperion.com/,(801) 372-0323,40.3711,-111.7686
27,43,CrossFit West Dublin,Unit 6C,Celbridge,Co. Dublin,,Ireland,http://www.crossfitwestdublin.com/,(086) 021-7333,53.342,-6.5185
28,44,CrossFit Corpo Forte,7908 88th Ave,Edmonton,AB,T6C1K9,Canada,False,(780) 893-7424,53.5237,-113.4495
29,49,CrossFit SEO,8470 Windfall Ridge Rd.,Athens,OH,45701,United States,http://www.crossfitseo.com,(740) 591-0735,39.3231,-82.1441
30,53,Sapper Eagle CrossFit,HHC 326 EN BN,APO,AE,09391,Iraq,False,(845) 857-5325,,
31,54,CrossFit Zachary,3204 Highway 19,Zachary,LA,70791,United States,http://www.crossfitzachary.com/,(225) 255-0815,30.6383,-91.1557
32,56,CrossFit Pampa,201 N. Wells,Pampa,TX,79065,United States,http://www.crossfitpampa.com/,(806) 662-1264,35.5318,-100.9775
33,57,Be Challenged CrossFit,4795 Us Hwy 96 N Unit 2,Silsbee,TX,77656,United States,http://www.bechallengedcrossfit.com/,(409) 656-4243,30.3571,-94.1258
34,58,CrossFit 919,"2500 Meridian Parkway, Suite 125",Durham,NC,27713,United States,http://www.crossfit919.com,(919) 656-4503,35.9114,-78.894
35,59,Helotes CrossFit,12266 Bandera Road #301,Helotes,TX,78023,United States,http://www.helotescrossfit.com/,(210) 618-1997,29.559,-98.6722
36,60,Reebok CrossFit Turku,Virusmäentie,Turku,Varsinais-Suomi,20100,Finland,http://www.crossfitturku.fi/,+358405749628,60.4664,22.2793
37,65,Reebok CrossFit YUL,78c Brunswick Blvd.,Dollard-Des-Ormeaux,QC,H9B 2C5,Canada,http://reebokcrossfityul.com/,(438) 884-8202,45.4782,-73.8072
38,66,CrossFit Faction,"Harrison Street Unit 5a, Golden Triable Industrial Estate",Widnes,Halton,WA8 8TN,United Kingdom,http://www.crossfitfaction.co.uk/,07923391312,53.355,-2.7677
39,67,Mustang CrossFit,11119 McPherson Rd.,Laredo,TX,78041,United States,False,(956) 764-3200,,
40,72,CrossFit Reebok 020,Hoogoorddreef 3,Amsterdam,Amsterdam,1101 BA,Netherlands,http://www.reebokcrossfit020.nl/,(020) 609-0410,52.3102,4.9472
41,76,Rock Jungle CrossFit,10247 - 184 Street,Edmonton,AB,T5S2J4,Canada,http://www.rockjunglefitness.com/Rock_Jungle_CrossFit/,(780) 454-7625,53.5452,-113.639
42,77,CrossFit 904,"11366 Trade Court, Suite 4",Jacksonville,FL,32256,United States,http://www.crossfit904.com,(904) 866-0558,30.164,-81.5318
43,78,CrossFit Blur,8175 E Raintree Dr Suite 2,Scottsdale,AZ,85260,United States,http://www.crossfitblur.com,(715) 495-0086,33.6187,-111.9046
44,80,CrossFit Murray,915 Arcadia Circle,Murray,KY,42071,United States,http://crossfitmurray.blogspot.com/,(270) 761-3809,36.6192,-88.3119
45,81,Physics CrossFit,7-3809 St-Joseph Blvd.,Ottawa,ON,K1C 1T1,Canada,http://physicscrossfit.com/,(819) 205-2665,45.4605,-75.5564
46,82,Range of Motion CrossFit,"2/27 Collingwood Street, Osborne Park",Perth,WA,6017,Australia,http://rangeofmotion.net.au/crossfit,(041) 598-4921,-31.9016,115.8148
47,87,Humphreys CrossFit,"Fitness Annex, Building 111",APO,AP,96271,"Korea, Republic of",http://www.humphreys-crossfit.com/,010-2671-7343,,
48,88,CrossFit Lugo,Via Puccini n°1,Lugo (Ra),Italy,,Italy,http://crossfitlugo.blogspot.com/,(335) 668-4815,44.4253,11.9028
49,89,CrossFit Hinesville,1875 EG Miles Parkway,Hinesville,GA,31313,United States,http://www.crossfithinesville.com/,(912) 385-3837,31.8469,-81.5959
50,90,KNB CrossFit,Camp Patriot / KNB,FPO,AE,09337,Kuwait,False,DSN 3188391367,,
51,91,CrossFit Pace Performance,41 John Street,Babylon,NY,11702,United States,http://paceperformance.net/,(631) 521-9158,40.7022,-73.3178
52,92,CrossFit Credence,3020 Broadway Ave. N,Rochester,MN,55906,United States,http://CrossFitcredence.com,(507) 261-7696,44.0555,-92.4537
53,93,CrossFit 7220,411 S. 20th Street,Laramie,WY,82070,United States,http://crossfit7220.com/,(307) 760-3132,41.3087,-105.5689
54,94,FTX CrossFit,1010 W. Geneva RD,Wheaton,IL,60187,United States,http://www.ftxcrossfit.com/,(630) 981-4964,41.8874,-88.1221
55,95,CrossFit Vie,112 College Road SCCC Field House,Loch Sheldrake,NY,12759,United States,http://crossfitvie.wordpress.com/,(845) 434-5750 x4434,,
56,98,CrossFit Minotaure,1999 Nobel #3,Sainte-Julie,QC,J3E 1Z7,Canada,http://www.crossfitminotaure.ca/,(514) 266-6191,45.578,-73.3267
57,99,CrossFit DGA,709 Firetower Rd,Dublin,GA,31021,United States,http://crossfitdga.com/,(478) 290-8885,32.487,-82.9217
58,101,Deka CrossFit,74 boul. de la Seigneurie unit 11,Blainville,QC,J7C 4N1,Canada,http://www.dekacrossfit.com/,(450) 806-3352,45.6741,-73.8611
59,106,CrossFit Westgate,1/60 Ablemarle Street,Williamstown North,VIC,3016,Australia,http://www.crossfitwestgate.com.au/,(041) 555-1445,-37.8502,144.8594
60,112,CrossFit Kalos Sthenos,"26620 Valley Center Dr, #105",Canyon Country,CA,91351,United States,http://www.crossfitkalossthenos.com/,(661) 373-7430,34.4209,-118.504
61,114,CrossFit 616,"2430 Turner Avenue, Suite A",Grand Rapids,MI,49544,United States,http://www.crossfit616.com/,(616) 780-8595,43.0076,-85.6782
62,116,CrossFit Maitland,219 High Street,Maitland,NSW,2320,Australia,http://www.crossfitmaitland.com.au/,(042) 944-3204,-32.7396,151.562
63,117,CrossFit Wilson,2804 Forest Hills Rd,Wilson,NC,27893,United States,http://www.crossfitwilson.com/,(252) 230-7823,35.709,-77.9525
64,118,CrossFit Jerusalem,George Washington Street 6,Jerusalem,Israel,91002,Israel,http://www.crossfitjerusalem.com/,(011-972) 54-5250576,31.7733,35.2211
65,119,CrossFit Chatswood,31/28 Barcoo St.,Chatswood,NSW,2069,Australia,http://www.crossfitchatswood.com/,(042) 105-6635,-33.7846,151.1961
66,120,CrossFit USU,825 E 700 N,Logan,UT,84322,United States,False,(435) 754-8024,,
67,121,CrossFit 417,5108 N 22nd Street,Ozark,MO,65721,United States,http://www.crossfit417.com/,(417) 380-3195,37.0631,-93.2326
68,122,Gardens CrossFit,4098 PGA Blvd,Palm Beach Gardens,FL,33410,United States,http://www.gardenscrossfit.com/,(561) 630-3118,26.8424,-80.0988
69,123,CrossFit LBC,212 Bristol Pike,Bristol,PA,19007,United States,http://www.crossfitlbc.com/,(610) 849-6448,40.1089,-74.8568
70,124,CrossFit Explosion,18039 SW Lower Boones Ferry Rd,Portland,OR,97224,United States,http://www.crossfitexplosionpdx.com/,(503) 995-4905,45.392,-122.7508
71,125,Cannon CrossFit,5907 Star Lane,Houston,TX,77057,United States,http://www.cannoncrossfit.com/,(309) 275-3036,29.7271,-95.4826
72,126,CrossFit Train,2031 Bryant Street,Denver,CO,80211,United States,http://www.crossfittrain.com/,(720) 537-1433,39.7482,-105.0192
73,128,CrossFit SA1,"Unit 17, SA1 Business Park
Langdon Road",Swansea,Wales,SA1 8QY,United Kingdom,http://www.crossfit-sa1.com/,07595520601,51.6203,-3.9218
74,131,CrossFit North Pasadena,3636 E. Colorado Blvd.,Pasadena,CA,91107,United States,http://www.crossfitnorthpasadena.com/,(626) 617-6037,34.1459,-118.0753
75,132,CrossFit Camp Mabry,"2200 W. 35th Street, Bldg 75",Austin,TX,78763,United States,http://www.crossfitcampmabry.com/,(512) 810-2230,,
76,135,CrossFit Harford,1809 Fashion Ct. Suite 102,Joppa,MD,21085,United States,http://www.crossfitharford.com,(443) 456-6405,39.444,-76.3211
77,136,CrossFit Napoli,Via Francesco Paolo Tosti 16,Napoli,Italy,80100,Italy,http://www.crossfitnapoli.com/,+393381940776,40.844,14.2201
78,139,CrossFit 2232,1131 Main Street,Bryson City,NC,28713,United States,http://www.crossfit2232.com,(828) 736-3620,35.4326,-83.4305
79,140,Hardbat CrossFit,"70 Aleph Drive, Suite B",Newark,DE,19702,United States,http://www.hardbatcrossfit.com/,(484) 256-0465,39.6446,-75.729
80,142,Rocket CrossFit,5720 Rainier Ave. S,Seattle,WA,98118,United States,http://www.rocketcrossfit.com/,(206) 853-9181,47.5506,-122.2773
81,143,CrossFit Diamond Valley,1b 266 Bolton Street,Melbourne,VIC,3095,Australia,http://crossfitdiamondvalley.com/,+61 0412237344,-37.7204,145.1381
82,144,CrossFit Conway,1195 South Harkrider Street,Conway,AR,72032,United States,http://www.crossfitconway.com/,(501) 514-1375,35.0592,-92.425
83,148,CrossFit Evoke,6925 Farmdale Ave,North Hollywood,CA,91605,United States,http://www.crossfitevoke.com/,(818) 764-1392,34.1971,-118.3812
84,149,RDAS CrossFit,Tweedside Park. Unit 8F,Tweedbank,Galashiels,TD1 3TD,United Kingdom,http://www.rdasgym.co.uk/,00447903239768,55.6038,-2.7519
85,150,CrossFit MTS,"Unit 10, 27 Beaverhall Road",Edinburgh,Scotland,EH7 4JE,United Kingdom,http://crossfitmts.co.uk/,0131 557 0520,55.966,-3.1931
86,152,GETFIT CrossFit,"Lot 19990, Ground Floor, Taman Alam
Jalan Telanai",Beribi Gadong,Brunei Darussalam,BE1118,Brunei Darussalam,http://getfitcrossfit.com/,+6738870996,4.8786,114.893
87,154,Minuteman CrossFit,25 Haverhill St,Reading,MA,01867,United States,http://www.minutemancrossfit.com/,(603) 285-3438,,
88,156,CrossFit Rifles,E Street (Camp Geiger),Camp Lejeune,NC,28542,United States,http://crossfitrifles.blogspot.com/,(910) 449-0370,,
89,158,CrossFit Herat,TF Pladin / CEXC,Camp Stone,APO AE,,Afghanistan,False,(079) 856-4886,,
90,161,CrossFit QDA,391 Washington Street,Buffalo,NY,14203,United States,https://qdathletics.com/,(716) 553-6003,42.8849,-78.8729
91,162,CrossFit Sudbury,1351-E Kelly Lake Rd. Unit 7,Sudbury,ON,P3E 5P4,Canada,http://www.crossfitsudbury.com/,(705) 521-4790,46.4649,-81.0299
92,164,CrossFit Novem,1735 Howard Street,Philadelphia,PA,19122,United States,http://www.crossfitnovem.com,(215) 291-2968,39.9763,-75.1349
93,165,Reebok CrossFit Almere,Televisieweg 64,Almere,Flevoland,1322 AM,Netherlands,http://www.crossfitalmere.nl/,+31614377930,52.35,5.1805
94,167,XS CrossFit,6522 E Ponderosa Drive,Parker,CO,80138,United States,http://xscrossfit.com/,(303) 910-0833,39.5399,-104.766
95,168,CrossFit 3000 South Melbourne,82-86 Clark Street,South Melbourne,VIC,3205,Australia,http://crossfit3000.com/,+61401015711,-37.8301,144.9604
96,173,Eternity CrossFit,"32242 Paseo Adelanto, Suite E",San Juan Capistrano,CA,92675,United States,http://www.eternitycrossfit.com/pages/home,(949) 291-7314,33.4937,-117.6645
97,174,CrossFit South Rockland,37 West Jefferson Ave.,Pearl River,NY,10965,United States,http://www.amrapfitness.com/,(845) 825-2230,41.0567,-74.0231
98,175,CrossFit True,11 Overlook Dr,Hamden,CT,06514,United States,http://www.true-athletics.com/,(203) 448-7745,41.3999,-72.9198
99,177,Fuerza CrossFit,"Calle 83 #28A-05 Bodega #2, Barrio El Trebol",Manizales,Caldas,,Colombia,http://fuerzacrossfit.com/,011575860003,5.0703,-75.5138
100,178,CrossFit 6330,70 Lion St,Albany,WA,6330,Australia,http://crossfit6330.com.au/,(089) 842-2762,-35.0053,117.8722
101,179,Reebok CrossFit Loreto,San Jeronimo 240; Col. Loreto y campamento; Del. Alvaro Obregon,Mexico City,DF,D.F. C.P. 01000,Mexico,False,01 55 53 39 56 74,19.3349,-99.1988
102,180,CrossFit Industrious,21609 Hwy 99 Ste C,Lynnwood,WA,98036,United States,http://www.crossfitindustrious.com,(206) 755-6290,47.803,-122.3293
103,181,C4 CrossFit,"20527 FM 1093, #C6",Richmond,TX,77407,United States,http://c4crossfit.com/,(713) 254-6866,29.5764,-95.7652
104,182,CrossFit Athletic Academy,1720 Church Street,Holbrook,NY,11741,United States,False,(631) 334-7893,40.7704,-73.0688
105,183,CrossFit Lewisburg,532 N. Derr Drive,Lewisburg,PA,17837,United States,http://www.crossfitlewisburg.com,(570) 412-1412,40.9685,-76.8923
106,185,CrossFit North Arlington,608 E. Front St.,Arlington,TX,76011,United States,http://crossfitnortharlington.com/,(214) 215-5393,32.7375,-97.1013
107,187,CrossFit of Fremont,37330 Cedar Boulevard,Newark,CA,94560,United States,http://www.CrossFitoffremont.com,(510) 745-7404,37.541,-122.0206
108,190,CrossFit Montgomery,41 East Railroad Street,Montgomery,AL,36104,United States,http://www.crossfitmontgomery.com/,(877) 907-4141,32.3858,-86.3098
109,191,New London CrossFit,"436 Broad Street, Unit B",New London,CT,06320,United States,http://www.newlondoncrossfit.com,(203) 927-0025,41.3627,-72.1151
110,192,Alexandria Fire Department CrossFit,1108 Jefferson Street-PDC,Alexandria,VA,22314,United States,False,(703) 838-4620,,
111,194,Letrono CrossFit,1754 South 750 West,Syracuse,UT,84075,United States,http://www.letronocrossfit.com/,(801) 294-6777,41.0884,-112.0408
112,195,CrossFit Silver Tiger, 50 Parker Road,Wakerfield,MA,01880,United States,http://crossfitsilvertiger.com/,(781) 486-3831,42.5064,-71.0879
113,196,CrossFit Takeover,1461 London Bridge Road,Virginia Beach,VA,23453,United States,http://www.crossfittakeover.com/,(310) 972-0995,36.7898,-76.0646
114,197,CrossFit Hub,"50 Playfair Rd, #01-01/02",Singapore,,367995,Singapore,http://www.CrossFitHub.com,84223062,1.3343,103.8867
115,198,NHB CrossFit,"414 W Grand Parkway South, Suite 197",Katy,TX,77494,United States,https://www.nhbcrossfit.com/,(281) 838-4034,29.7753,-95.7789
116,199,District CrossFit,1525 Half St. SW,Washington,DC,32034,United States,http://www.DistrictCrossFit.com,(202) 507-8255,38.8712,-77.0111
117,200,High Altitude CrossFit,"336 Spring Creek Circle, Unit 1",Gypsum,CO,81637,United States,http://www.highaltitudecrossfit.com,(970) 343-9040,39.6344,-106.9161
118,201,CrossFit Avon,"Unit 15, Merton Road",Bristol,Bristol,BS7 8TL,United Kingdom,http://www.crossfitavon.com/,07970 493643,51.4826,-2.5869
119,203,CrossFit Norfolk,9309 Granby Street,Norfolk,VA,23503,United States,http://www.crossfitoceanview.com,(757) 375-9291,36.946,-76.2594
120,204,CrossFit Liverpool,Unit 18-19 Love Lane,Liverpool,England,L3 7DD,United Kingdom,http://crossfitliverpool.blogspot.com/,07407154901,53.417,-2.9947
121,205,CrossFit Steele Creek,"9301 Forsyth Park Drive, Suite C",Charlotte,NC,28273,United States,http://CrossFitSteeleCreek.com,(704) 714-7775,35.136,-80.9533
122,207,CrossFit Hybrid Athletics Bridgeport,1434 State Street,Bridgeport,CT,06605,United States,http://Hybridathletics.net,(203) 913-5228,41.1702,-73.2106
123,210,Celtic CrossFit,"Unit 19 Queensway Meadows Industrial Estate, Estuary Road",Newport Gwent,South Wales,NP19 4SP,United Kingdom,http://www.celticcrossfit.co.uk,07866 721175,51.5704,-2.9456
124,211,TC Total CrossFit,765 Duell Road,Traverse City,MI,49686,United States,http://www.tctotalcrossfit.com/,(231) 409-7960,44.7319,-85.5908
125,212,CrossFit Sonora,18901 Microtronics Way,Sonora,CA,95370,United States,http://www.crossfitsonora.com,(209) 352-5575,37.9613,-120.3213
126,213,Tamalpais CrossFit,"555 E. Francisco Blvd, Suite 19 & 20",San Rafael,CA,94901,United States,http://www.tamcrossfit.com,(415) 948-8453,37.9665,-122.5149
127,217,CrossFit Ben Nevis,"unit 11, Ben Nevis Estate",fort william,Scotland,ph33 6pr,United Kingdom,http://www.fitnessculture.co.uk,0447979645798,56.8251,-5.0852
128,219,CrossFit Kennesaw,1349 Old 41 Hwy.,Marietta,GA,30060,United States,http://www.crossfitkennesaw.com,(404) 931-8773,33.9786,-84.564
129,220,CrossFit Vitality,8230 Poplar Tent Road,Concord,NC,28027,United States,http://www.crossfitvitality.com,(704) 721-5555,35.409,-80.7148
130,222,CrossFit Forward,"5933 Plank Road, Suite J",Fredericksburg,VA,22407,United States,http://www.crossfitforward.com/,(540) 226-9560,38.2933,-77.5792
131,223,CrossFit Alive,3 / 9 Kohl Street,Upper Coomera,QLD,4209,Australia,http://crossfitalive.com.au/,(043) 123-3222,-27.8528,153.3041
132,225,CrossFit Maui,300 Ma'alaea Rd.,Ma'alaea,HI,96793,United States,http://www.crossfitmaui.com/,(808) 633-1765,20.7917,-156.5131
133,227,CrossFit Surge,"10621 Irma Dr, Unit C",Denver,CO,80233,United States,http://www.crossfitsurge.com,(303) 907-3682,39.8905,-104.9646
134,228,CrossFit Gig Harbor,"6521 43rd Ave NW, Suite ""A""",Gig Harbor,WA,98335,United States,http://www.crossfitgigharbor.com/,(253) 858-5432,47.3158,-122.5951
135,229,Indy Shield CrossFit,901 N Post Rd,Indianapolis,IN,46219,United States,http://indyshield.com/,(317) 534-8130,,
136,230,CrossFit Shoalhaven,5 Investigator St.,South Nowra,NSW,2541,Australia,http://www.crossfitshoalhaven.com,+61 244215265,-34.9092,150.5851
137,231,CrossFit SAC,"4755 Auburn Boulevard, Suite C",Sacramento,CA,95842,United States,http://www.crossfitsac.com,(530) 559-2283,38.6553,-121.353
138,232,CrossFit eo,Weltenburger Str. 6,Munich,Bavaria,81677,Germany,http://crossfit-eo.de/,0049-89-45667845,48.1411,11.6271
139,233,Lahaina CrossFit,219 Kupuohi #101,Lahaina,HI,96761,United States,http://www.lahainacrossfit.com/,(309) 242-3478,20.8846,-156.6752
140,235,Geaux CrossFit,3854 American Way,Baton Rouge,LA,70816,United States,http://geauxcrossfit.com,(225) 293-9220,30.4176,-91.0535
141,237,Project Fitness CrossFit,921 W. Mary St,Garden City,KS,67846,United States,http://www.projectfitness.org,(620) 640-5732,37.99,-100.8815
142,238,CrossFit On The Road,84 Beertsestraat,Halle,Vlaams Brabant,1500,Belgium,False,+32 472 76 53 54,50.7322,4.2288
143,239,CrossFit Stony Brook,"7 Flowerfield, Suite 42",St. James,NY,11780,United States,http://www.crossfitstonybrook.com,(631) 572-8255,40.8959,-73.1462
144,241,CrossFit Mt. Hood,335 NE 8th St,Gresham,OR,97030,United States,http://crossfitmthood.com/,(503) 491-5100,45.5034,-122.4275
145,243,CrossFit Fresno,"66 E. Escalon, Suite #107",Fresno,CA,93710,United States,http://www.crossfitfresno.com,(559) 492-0432,36.8269,-119.7889
146,244,CrossFit Crux,"118 Sandiford Drive
Unit 2",Stouffville,ON,L4A 7X5,Canada,http://www.crossfitcrux.com,(416) 662-1637,43.9636,-79.2697
147,247,CrossFit Rebels,2077 Sunnydale Blvd,Clearwater,FL,33765,United States,http://www.crossfitrebels.com,(727) 253-4971,27.9869,-82.7508
148,248,CrossFit 42 South,2-4 Patrick St,Hobart,TAS,7000,Australia,http://www.crossfit42s.com.au,(041) 211-0308,-42.8763,147.3252
149,249,Capital City CrossFit,"1615 W. Jefferson, #A",Springfield,IL,62702,United States,http://www.c3crossfit.com,(217) 341-9173,39.8084,-89.6832
150,251,CrossFit 2920,"9421 FM 2920, Suite 10B",Tomball,TX,77375,United States,https://crossfit2920.com/,(281) 516-7600,30.0846,-95.5707
151,252,Natural Selection CrossFit,309 N. Belfair Ct,Kennewick,WA,99336,United States,http://www.nscrossfit.com/,(509) 845-9796,46.2064,-119.2214
152,253,Unit 22 CrossFit Northampton,Rothersthorpe Crescent,Northampton,England,NN4 8JD,United Kingdom,http://unit-22.com/Crossfit/,447866634279,52.2273,-0.9101
153,254,In Shape CrossFit,calle flerida nolasco #3 arroyo hondo,Santo Domingo,Distrito Nacional,,Dominican Republic,http://www.inshapecrossfit.com/,(809) 566-2889,18.4879,-69.936
154,259,Outpost CrossFit,83 Ambrogio Dr. Unit K,Gurnee,IL,60031,United States,http://www.outpostcrossfit.com,(847) 744-0112,42.3614,-87.8982
155,261,CrossFit 425,1690 132nd Pl NE,Bellevue,WA,98005,United States,http://www.crossfit425.com/,(425) 885-4466,47.6251,-122.1628
156,262,CrossFit Tsawwassen,1212C 56th Street,Delta,BC,V4l2A4,Canada,False,(604) 782-6764,49.0253,-123.0673
157,263,Evansville CrossFit,1230 Heinlein Road,Evansville,IN,47725,United States,http://evansvillecrossfit.com,(812) 205-0131,38.0542,-87.5396
158,265,Cascade CrossFit,8126 304th Avenue SE,Issaquah,WA,98027,United States,http://www.cascadecrossfit.com,(425) 941-0394,47.5275,-121.9352
159,268,CrossFit Broadbeach,"Unit 1, 42 Olympic Circuit",Southport,QLD,4215,Australia,http://www.crossfitbroadbeach.com.au,(041) 317-2643,-27.9706,153.3924
160,269,CrossFit Roar,"3-80 Webster Road, Stafford",Brisbane,QLD,4053,Australia,http://crossfitroar.com/,(043) 711-7187,-27.415,153.0158
161,270,Black Hills CrossFit,1420 Deadwood Ave N,Rapid City,SD,57702,United States,http://www.blackhillscrossfit.com/,(605) 718-7558,44.0991,-103.2664
162,271,CrossFit Rife,5741 Bayside Drive Suite 101,Virginia Beach,VA,23455,United States,http://www.crossfitrife.com/,(757) 227-6757,36.898,-76.1856
163,274,CrossFit BarDown,82 Kingswood Drive,Hammonds Plains,NS,B4B 1K4,Canada,False,(902) 452-6328,44.715,-63.7382
164,276,Green Mountain CrossFit,"654 Granger Road, Suite 4",Berlin,VT,05641,United States,http://www.theconfluencevt.org/crossfit,(802) 229-4131,44.2157,-72.5592
165,279,CrossFit Chatsworth,9144 Jordan Avenue,Chatsworth,CA,91311,United States,http://www.crossfitchatsworth.com,(818) 357-5547,34.2368,-118.6039
166,282,CrossFit Impact,1880-1882 Johns Drive,Gleview,IL,60025,United States,http://www.impactcrossfit.com/,(847) 858-2807,42.0898,-87.81
167,284,CrossFit Flemington,6 Kings Court,Flemington,NJ,08822,United States,http://www.nragedcrossfit.com/,(908) 451-3504,40.5095,-74.8426
168,285,CrossFit Fort Wayne,"829 Lawrence Dr, #2",Fort Wayne,IN,46804,United States,http://www.crossfitfortwayne.com,(260) 444-5722,41.0781,-85.2064
169,286,CrossFit Fort Drum,"Pine Plains Activity Center,",Fort Drum,NY,13603,United States,http://www.crossfitcampspann.blogspot.com,(913) 250-6121,,
170,287,Flux CrossFit,3424 13th Avenue,Regina,SK,SK S4T 1P7,Canada,http://www.fluxregina.ca/flux/home.html,(306) 206-3859,50.4456,-104.6305
171,289,CrossFit Intensify,1485 Mohawk Blvd,Springfield,OR,97477,United States,http://crossfitintensify.com/,(541) 337-5627,44.0586,-123.0003
172,290,CrossFit OM,"Hemen Motors, Kishor Kumar Ganguly lane, Juhu Tara road",Mumbai,Maharashtra,400056,India,http://www.crossfitom.com,061449586967,,
173,291,CrossFit Estes Park,1755 State Hwy 66,Estes Park,CO,80517,United States,http://www.crossfitestespark.com,(970) 227-0499,40.3612,-105.556
174,292,CrossFit Amsterdam,Karperweg 39,Amsterdam,Amsterdam,1075 LB,Netherlands,http://www.CrossFitAmsterdam.nl,+31 6 24 317 826,52.3475,4.8542
175,294,CrossFit Sri Ram Ashram,"Sri Ram Ashram
Village Shyampur-Kangri",Haridwar,Uttarakhand,249408,India,http://www.crossfitsriramashram.com/,919837777323,,
176,296,CrossFit Hamilton,2101 E. State Street,Hamilton,NJ,08619,United States,http://crossfithamilton.net/,(609) 915-8516,40.239,-74.723
177,297,CrossFit Newtown,"11 Friends Lane  
Suite 111",Newtown,PA,18940,United States,http://www.crossfitnewtown.com,(215) 860-9660,40.2281,-74.9151
178,298,CrossFit Prime,"220 Geiger Rd, Unit 105 & 106",Philadelphia,PA,19115,United States,http://www.crossfitprime.com/,(215) 873-4571,40.1089,-75.0499
179,300,CrossFit South Central Mass,"28 Hastings St., Unit #3",Mendon,MA,01756,United States,http://crossfitsouthcentralmass.com,(774) 276-1485,42.1031,-71.5564
180,301,Derby City CrossFit,"1860 Mellwood Ave, #285",Louisville,KY,40206,United States,http://derbycitycf.com/,(502) 551-5413,38.2628,-85.7129
181,302,CrossFit Navstation Newport,"NavStation Newport
Gym 109",Newport,RI,02840,United States,http://OKS-USA.com,(401) 932-1911,,
182,303,Iron Antler CrossFit of Bulverde,28798 N.Hwy 281,Bulverde,TX,78163,United States,http://ironantlercrossfitofbulverde.com/,(210) 445-7131,29.7244,-98.4415
183,306,CrossFit Reaction,15 Ferguson St,Greenville,SC,29601,United States,http://www.crossfitreaction.com/,(207) 590-4422,34.8453,-82.4083
184,309,Crossfit Irvine,1392 McGaw Avenue,Irvine,CA,92614,United States,http://www.crossfitirvine.com,(714) 263-5093,33.6988,-117.8541
185,310,CrossFit Athlete Lab,3225 Country Drive,St. Paul,MN,55127,United States,http://www.TheAthleteLab.com,(612) 770-4322,45.0413,-93.101
186,311,CrossFit Warrenton,32 S. Second Street,Warrenton,VA,20106,United States,http://www.crossfitwarrenton.com/,(540) 324-6796,38.7126,-77.7952
187,313,Vagabond CrossFit,15 Hampden Drive,South Easton,MA,02375,United States,http://vagabondcrossfit.com/,(508) 930-8734,42.0473,-71.0719
188,314,CrossFit Brasil,"Rua Clélia, 970",Lapa,Sao Paulo,,Brazil,http://www.crossfitbrasil.com.br,(011)23671837,-23.5249,-46.6919
189,315,CrossFit Spartanburg,330 Tenosha Drive,Spartanburg,SC,29303,United States,http://www.crossfitspartanburg.com/,(864) 345-3589,34.9975,-81.9814
190,316,CrossFit TNT,3683 New Town Blvd.,Saint Charles,MO,63301,United States,http://www.crossfit-tnt.com,(636) 724-6464,38.831,-90.5184
191,317,CrossFit 864,213 West Main Street,Clinton,SC,29325,United States,http://www.crossfit864.com,(864) 833-7781,34.4734,-81.8816
192,319,Oakland County CrossFit,169 W. Clarkston Road,Lake Orion,MI,48362,United States,http://oaklandcountycrossfit.com/,(248) 613-3528,42.7668,-83.2433
193,322,CrossFit Leatherneck (LNK),Camp Leatherneck,Helmand,,,Afghanistan,http://www.crossfitleatherneck.com,(703) 839-5466,,
194,323,CrossFit East Cobb,4696 Lower Roswell Road Suite 700,Marietta,GA,30068,United States,http://www.crossfiteastcobb.com,(404) 459-7388,33.9644,-84.4149
195,324,Carport CrossFit,1901 1st Ave South,Irondale,AL,35210,United States,http://www.carportcrossfit.blogspot.com,(205) 527-3133,33.5378,-86.7082
196,325,Triple Force CrossFit,4140 Tuller Rd. Suite 114,Dublin,OH,43017,United States,http://www.tripleforcecrossfit.com,(614) 642-2638,40.1082,-83.1006
197,328,CrossFit Durango,360 S. Camino Del Rio,Durango,CO,81301,United States,http://www.crossfitdurango.com,(970) 769-6903,37.2524,-107.8745
198,329,CrossFit Oshawa,712 Wilson Road S,Oshawa,ON,L1H 6E9,Canada,http://www.crossfitoshawa.com,(905) 447-5682,43.8834,-78.8356
199,332,Antioch CrossFit,2172 Eva Way,Brentwood,CA,94513,United States,http://www.antiochcrossfit.com,(925) 753-7533,37.9564,-121.73
200,333,Rocklin CrossFit,"4420 Granite Drive, Suite 100",Rocklin,CA,95667,United States,http://www.rocklincrossfit.com,(916) 625-0121,38.7966,-121.216
201,334,CrossFit 180,906 S State Rd 39,Lebanon,IN,46052,United States,http://Crossfit180.blogspot.com,(765) 336-0180,40.0275,-86.4752
202,336,Bravo CrossFit,145 Palisade Street #L3,Dobbs Ferry,NY,10522,United States,http://BravoCrossFit.com,(914) 882-0518,41.016,-73.8754
203,337,CrossFit OTG,3330 Bargaintown Rd,Egg Harbor Township,NJ,08234,United States,http://www.crossfitotg.com/,(609) 513-9164,39.3744,-74.5791
204,339,CrossFit Dagger,Cnr Alfred Rd and West Coast Hwy,Swanbourne,WA,6010,Australia,http://www.sasr.org.au,(043) 233-2208,,
205,341,CrossFit UpCountry Maui,888 Haliimaile Road,(Hali'imaile) Makawao,HI,96768,United States,http://crossfitupcountrymaui.com/,(808) 281-6925,20.8687,-156.3385
206,343,GF CrossFit,5/213 The Entrance Road Erina,Erina,NSW,2250,Australia,http://www.crossfitbodym.com/cross-fit,(042) 323-7204,-33.4351,151.3853
207,348,CrossFit Coronado,160 C. Avenue,Coronado,CA,92118,United States,http://www.crossfitcoronado.com/,(281) 851-1613,32.6972,-117.1717
208,353,CrossFit Saratoga,8 Woodland Court,Ballston Spa,NY,12020,United States,http://www.crossfitsaratoga.com,(518) 884-0671,43.029,-73.8537
209,355,CrossFit Supremacy,Unit 10 221-227 Old Kent Rd.,Greenacre,NSW,2190,Australia,http://www.crossfitsupremacy.com.au,+61410646054,-33.9119,151.043
210,356,CrossFit Richmond,116 Murphy Street,Richmond,VIC,3121,Australia,http://www.crossfitrichmond.com/,(040) 015-1288,-37.8183,145.0096
211,357,CrossFit 450,701 W. Sample St.,South Bend,IN,46601,United States,http://www.Crossfit450.com,(574) 298-5553,,
212,358,CrossFit Rutherford,325 West Rutherford Blvd.,Murfreesboro,TN,37129,United States,http://www.crossfitrutherford.com,(615) 533-6074,35.8193,-86.399
213,361,SF CrossFit,"2 University Drive, Suite 330",Plantation,FL,33324,United States,http://www.sfbbcrossfit.com,(954) 931-1484,,
214,363,CrossFit South Shore L.I.,1507-2 Smithtown Avenue,Bohemia,NY,11716,United States,http://www.crossfitssli.com,(631) 472-1930,40.7804,-73.1088
215,365,Titanium CrossFit,823 McPhee Ave,Courtenay,BC,V9N 3A1,Canada,http://www.titaniumcrossfit.com,(250) 897-8121,49.6855,-125.0037
216,367,Southern CrossFit,32 Kembla Way,Willetton,WA,6155,Australia,http://www.southernxfit.com,+61 424606173,-32.042,115.8874
217,368,CrossFit Madtown,2500 Pleasant View Rd. Suite #101,Middleton,WI,53562,United States,http://www.crossfitmadtown.com/,(608) 282-5610,43.1037,-89.537
218,370,CrossFit PTC,"303 Kelly Drive, Suite 8 and 9",Peachtree City,GA,30269,United States,http://www.crossfitptc.com,(678) 519-2302,33.3803,-84.5793
219,371,Frisco CrossFit,"10401 Clarence Dr, Ste 200",Frisco,TX,75034,United States,http://www.friscocrossfit.com,(469) 879-4158,33.165,-96.8231
220,372,CrossFit Oslo,Nydalsveien 17,Oslo,Oslo,0484,Norway,http://www.crossfitoslo.no,22 71 80 71,59.9478,10.7646
221,373,MSAC CrossFit,2070 Palmetto Street Suite 7,Middleburg,FL,32068,United States,http://msaccrossfit.com/,(843) 263-4849,30.0734,-81.8637
222,374,CrossFit Horizons,2/34 Rural DRV,Sandgate,NSW,2307,Australia,http://crossfithorizons.blogspot.com/,61 02 40238696,-32.8768,151.7097
223,375,CrossFit the Royal Guards,Hoeveltevej 111-117,Birkeroed,,2820,Denmark,http://www.lgiforening.dk/crossfit,004526730338,,
224,376,CrossFit Overdrive,7371 Elmbridge Way,Richmond,BC,V6X-1B8,Canada,http://www.crossfitoverdrive.com,(604) 727-7228,49.172,-123.1435
225,377,CrossFit Cheshire,360 Sandbank Road,Cheshire,CT,06410,United States,http://www.crossfitcheshire.com/,(203) 272-6846,41.5364,-72.9026
226,378,CrossFit Minneapolis,1313 Chestnut Ave,Minneapolis,MN,55426,United States,http://www.crossfitminneapolis.com,(651) 321-3734,44.9764,-93.2837
227,382,Reebok CrossFit Zurich,Hardstrasse 81,Zurich,Switzerland,8004,Switzerland,http://www.crossfitzuerich.ch/,0041765694350,47.3815,8.5126
228,384,Outer Edge CrossFit,16000 Mill Creek Blvd #112,Mill Creek,WA,98012,United States,http://www.outeredgecrossfit.com/,(206) 290-8136,47.8531,-122.2212
229,385,Concord CrossFit,2956 Treat Blvd. Ste H,Concord,CA,94518,United States,http://concord-crossfit.com/,(925) 798-6235,37.9363,-122.0258
230,386,CrossFit Roots,2406 30th Street,Boulder,CO,80301,United States,http://www.crossfitroots.com,(303) 578-8455,40.025,-105.2536
231,387,CrossFit Amplify,1962 Ohio St,Lisle,IL,60532,United States,http://www.crossfitamplify.com,(630) 532-4095,41.7912,-88.0898
232,388,CrossFit 100,4927 N Lydell Avenue,Glendale,WI,53217,United States,http://crossfit100.com/,(414) 313-1427,43.1065,-87.9123
233,392,Karma CrossFit,1053 N Aviation Blvd.,Manhattan Beach,CA,90266,United States,http://karmacrossfit.com,(310) 500-8127,33.8862,-118.3786
234,393,Aspen CrossFit,"210 AABC, Suite N",Aspen,CO,81611,United States,http://www.aspencrossfit.com,(970) 948-4605,39.2189,-106.8588
235,395,CrossFit Cambridge,54 Guelph Avenue unit 5-7,Cambridge,ON,N3C 2N6,Canada,http://www.crossfitcambridge.ca,(519) 240-6890,43.4319,-80.3111
236,396,CrossFit Stronghold,9848 Fox Meadow Road,San Diego,CA,92127,United States,http://crossfitstronghold.com/,(619) 674-4677,33.011,-117.1185
237,397,CrossFit Decatur,701 Church Street,Decatur,GA,30030,United States,http://crossfitdecatur.com/,(404) 370-1763,33.7787,-84.2947
238,398,CrossFit North Fulton,"700 Hembree Pl, Suite E",Roswell,GA,30076,United States,http://www.crossfitnorthfulton.com/,(404) 993-1494,34.0596,-84.3197
239,399,CrossFit North Atlanta,1730 Taylor Street NW,Atlanta,GA,30318,United States,http://www.crossfitnorthatlanta.com/,(404) 355-4500,33.8016,-84.4211
240,401,CrossFit Texas,4674 Priem Lane Ste. 408,Pflugerville,TX,78660,United States,http://www.crossfittx.com/,(512) 251-6402,30.4945,-97.5884
241,402,CrossFit CHF,1410 Sevierville Rd,Maryville,TN,37804,United States,http://xfitchf.wordpress.com/,(865) 238-6091,35.758,-83.9553
242,403,CrossFit Lethbridge,#10 4005 7th Ave. S.,Lethbridge,AB,T1J 5K2,Canada,http://www.crossfitlethbridge.typepad.com/,(403) 915-6469,49.6895,-112.8099
243,404,CrossFit Guelph,"340 Edinburgh RD North, Unit C",Guelph,ON,N1H 3A8,Canada,http://www.crossfitguelph.com,(519) 993-2119,43.5504,-80.2762
244,407,CrossFit Bismarck,"1422 Industrial Drive, Unit B",Bismarck,ND,58501,United States,http://www.crossfitbismarck.com,(701) 223-6979,46.8202,-100.7312
245,408,RA CrossFit,1223 Western Ave,Seattle,WA,98101,United States,http://www.xplorecrossfit.com,(206) 456-6236,47.6062,-122.3393
246,411,JSA CrossFit,"187 Parker Ave, Rt. 71
Suite M",Manasquan,NJ,08736,United States,http://jsacrossfit.com,(732) 965-2006,40.1262,-74.0493
247,412,Peninsula CrossFit,20-2075 Henry Ave,Sidney,BC,V8L 1T2,Canada,http://www.saanichpeninsulacrossfit.net/,(778) 426-3308,48.653,-123.4133
248,413,CrossFit Stowe,17 Maple Manor,Vergennes,VT,05491,United States,http://crossfitstowevt.blogspot.com/,(802) 238-0903,44.1577,-73.2449
249,414,CrossFit East Bay,66 Franklin St #100b,Oakland,CA,94607,United States,http://crossfiteastbay.com,(510) 910-2919,37.7944,-122.2756
250,416,CrossFit Birmingham,"157 Resource Center Pkwy, Ste. 103",Birmingham,AL,35242,United States,http://CrossFitBirmingham.com,(205) 991-1909,33.4256,-86.708
251,417,Badlands CrossFit,557 2nd St. SE,Medicine Hat,AB,T1A4A4,Canada,http://badlandsunderground.blogspot.com/,(403) 979-1789,50.0403,-110.6771
252,420,CrossFit Great Barrington,11 Crissey Road,Great Barrington,MA,01230,United States,http://www.bizfitnation.com,(413) 822-3069,42.2121,-73.343
253,421,CrossFit Titanfit,704 Andico Rd,Plainfield,IN,46168,United States,http://titanfit.com/,(312) 543-4372,39.7142,-86.3904
254,423,CrossFit Battle Ready,3257 35th Ave,Evans,CO,80620,United States,http://www.crossfitbattleready.com/,(970) 405-7091,40.3842,-104.7354
255,424,CrossFit R.A.W.,2330 Wildwood Road,Gibsonia,PA,15044,United States,http://www.raw-training.com/,(412) 487-2221,40.5939,-79.9786
256,425,CrossFit Knoxville,9311 and 9309C Kingston Pike,Knoxville,TN,37922,United States,http://www.crossfitknoxville.com/,(865) 356-9000,35.9105,-84.0934
257,426,BayState CrossFit,179 Court Street,Plymouth,MA,02360,United States,http://baystatecrossfit.com/,(508) 648-5648,41.965,-70.6744
258,427,Team CrossFit,6036 Variel Ave.,Woodland Hills,CA,91367,United States,http://www.teamcrossfit.com/,(818) 992-7502,34.1806,-118.5921
259,430,CrossFit Forged,2530 Pioneer Ave,Vista,CA,92081,United States,False,(619) 865-2211,33.1476,-117.2219
260,431,CrossFit Rancho Cucamonga,8333 Rochester Avenue #110,Rancho Cucamonga,CA,91730,United States,http://www.crossfitranchocucamonga.com/,(909) 260-6780,34.1019,-117.5458
261,432,CrossFit Truckee,"40153 Truckee Airport Rd, Building 3",Truckee,CA,96161,United States,http://www.CrossFitTruckee.com,(530) 587-3226,39.316,-120.1468
262,434,REF CrossFit,"Rebel Office Park, Orlik Drive
Corner of George Allen and Mountjoy Streets",Wilbart,Bedfordview,1609,South Africa,http://www.b4cfitness.co.za,27829909474,-26.1642,28.1612
263,436,CrossFit Bath,Unit 8 Wansdyke Business Center,Bath,England,BA2 3LY,United Kingdom,http://crossfitbath.com/,07971604677,51.3738,-2.3771
264,437,CrossFit Denmark,"Store Kongensgade 54, 3rd Floor",Copenhagen,Copenhagen,1264,Denmark,False,004561712930,55.6854,12.5881
265,438,CrossFit Billings,1428 Grand Avenue,Billings,MT,59102,United States,http://crossfitbillings.com/,(406) 672-7580,45.7841,-108.5524
266,439,CrossFit Monrovia,143 West Maple Avenue,Monrovia,CA,91016,United States,http://www.crossfitmonrovia.com,(714) 390-9556,34.1415,-118.0021
267,442,Alley Cat CrossFit,NSA Bahrain,Juffair,Manama,,Bahrain,http://crossfitbarbarianfitness.blogspot.com/,011-973-3930-0791,,
268,443,CrossFit Sport,Dalsmara 9-11,Kopavogur,n/a,201,Iceland,http://www.crossfitsport.is/,(354) 564-1950,64.1048,-21.8934
269,445,CrossFit Skopje,ul. Viktor Igo br.10/20,Skopje,Skopje,1000,Macedonia,http://www.crossfitskopje.com/,38970369802,42.0,21.4333
270,446,CrossFit Maxwell,50 Ash Street,Maxwell AFB,AL,36112,United States,False,(334) 953-7554,,
271,448,CrossFit GPS,74 Millpond Pkwy,Monroe,NY,10950,United States,http://www.crossfitgps.com/,(845) 913-8048,41.3333,-74.191
272,449,Canyon CrossFit,953 S. Flintridge Way,Anaheim,CA,92808,United States,http://www.canyoncrossfit.com,(714) 348-6256,33.8567,-117.7332
273,450,CrossFit Carson Valley,"1291 Industrial Qtr, Suite A",Gardnerville,NV,89410,United States,http://crossfitcarsonvalley.com,(775) 690-3284,38.9413,-119.7496
274,451,CrossFit Los Altos,600 Fremont Ave,Los Altos,CA,94024,United States,http://crossfitlosaltos.com/,(650) 947-9831,37.3624,-122.0998
275,452,Windy City CrossFit,"4043 N. Ravenswood, #106",Chicago,IL,60613,United States,http://www.windycitycrossfit.com/,(773) 895-1378,41.9556,-87.6737
276,458,SPC CrossFit,"7311 State, Route 43",Kent,OH,44240,United States,http://www.spccrossfit.com/,(330) 671-0814,41.1896,-81.3456
277,462,Foundation CrossFit,1415 12th Ave,Seattle,WA,98122,United States,http://www.foundationcrossfit.com/,(206) 299-0225,47.6136,-122.3168
278,463,CrossFit Stockholm,"Drottningholmsvägen 185
Bromma/Alvik",Stockholm,,167 53,Sweden,http://www.crossfitstockholm.com/,08-694 89 00,59.3335,17.973
279,466,Delta CrossFit,7830 Brentwood Blvd,Brentwood,CA,94513,United States,http://deltacrossfit.com,(925) 783-6996,37.9421,-121.6961
280,467,CrossFit Steve's Club,7800 Airport Highway,Pennsauken,NJ,08109,United States,http://www.stevesclub.org,(609) 838-0070,,
281,468,CrossFit Berks,220 Park Road North,Wyomissing,PA,19610,United States,http://corpsfitness.net/,(877) 498-8620,40.3392,-75.957
282,469,CrossFit Hove,"unit 9, 64-78 Davigdor Rd",Hove,England,BN3 1RF,United Kingdom,http://crossfithove.blogspot.com/,01903821020,50.8313,-0.1567
283,470,CrossFit Milpitas,1090 S Milpitas Blvd.,Milpitas,CA,95035,United States,http://www.crossfitmilpitas.com/,(408) 825-3777,37.4177,-121.8886
284,471,CrossFit Loveland,1905 W. 8th St. Unit 125,Loveland,CO,80537,United States,http://www.crossfitloveland.com/,(970) 203-0759,40.4017,-105.1046
285,472,CrossFit Kinnick,"166 S 2nd Ave, Ste C",Upland,CA,91786,United States,http://www.crossfitkinnick.com,(909) 983-4744,34.0933,-117.6485
286,473,CrossFit Reebok Gold Coast,17 Strathaird Road,Bundall,QLD,4217,Australia,http://www.crossfitgoldcoast.com.au/,+61431169496,-28.0076,153.4015
287,474,CrossFit Adelaide,4/1 Barrpowell Street,Welland,SA,5007,Australia,http://www.crossfitadelaide.com/,61404317353,-34.9101,138.5608
288,475,So Cal Martial Arts Center CrossFit,5080 Bonita Road,Bonita,CA,91902,United States,http://socalmartialartscenter.com/crossfit/,(619) 427-6914,32.6701,-117.0217
289,476,RedShed CrossFit,3 Goldmine Road,Flanders,NJ,07836,United States,http://www.redshedcrossfit.com/,(973) 448-9200,40.8803,-74.6972
290,477,CrossFit Kingston,718 Fortune Cresent,Kingston,ON,,Canada,http://www.crossfitkingston.blogspot.com/,(613) 453-7486,44.2761,-76.5655
291,479,CrossFit Solano,"424 Executive Court North, Suites C & D",Fairfield,CA,94534,United States,http://www.cfsolano.com/,(707) 373-2224,38.2313,-122.1237
292,480,CrossFit Manassas,9412 Center Point Lane,Manassas,VA,20110,United States,http://www.crossfitmanassas.com/,(703) 686-4779,38.7523,-77.4887
293,481,CrossFit Winston-Salem,2529 Viceroy Dr,Winston-Salem,NC,27103,United States,http://www.crossfitwinstonsalem.com/,(336) 391-0362,36.0449,-80.3249
294,482,CrossFit Meridian,345 S Adkins Way,Meridian,ID,83642,United States,http://www.CrossfitMeridian.net,(208) 861-8148,43.6016,-116.3778
295,483,CrossFit Austin,"8708 South Congress, Suite C100",Austin,TX,78745,United States,http://crossfitaustin.com/,(806) 679-7519,30.1716,-97.7874
296,485,CrossFit Northwest Tucson,"6800 North Camino Martin, #106",Tucson,AZ,85741,United States,http://www.crossfitnwt.com/,(520) 955-2228,32.3307,-111.0558
297,486,CrossFit Orange NY,31 St. John Street,Goshen,NY,10924,United States,http://crossfitorangeny.com/,(718) 812-1076,41.4036,-74.324
298,488,CrossFit SS (South Side),7018 A.C. Skinner Pkwy. Suite 260,Jacksonville,FL,32256,United States,http://www.crossfitss.com/,(904) 296-4552,30.2487,-81.5803
299,489,CrossFit Littleton,4731 S Santa Fe Circle #1,Englewood,CO,80110,United States,https://www.intensitylittleton.com/CrossFit/,(720) 668-1617,39.6301,-105.0101
300,491,Boise CrossFit,3235 W Chinden Blvd.,Boise,ID,83714,United States,http://boisecrossfit.com/,(208) 863-4741,43.6215,-116.2384
301,492,CrossFit NWA,500 S Main Street,Bentonville,AR,72712,United States,http://www.crossfitnwa.com/,(479) 715-6053,36.3729,-94.2088
302,493,Dalton's CrossFit,"1120 Dewey Way, Suite E",Upland,CA,91786,United States,http://www.daltonscrossfit.net/,(909) 982-9300,34.1077,-117.6933
303,494,CrossFit Christchurch,132 Vagues Road,Christchurch,Canterbury,8052,New Zealand,http://crossfitchristchurch.com/,64 508 276 773,-43.4851,172.6085
304,498,Centurion CrossFit Fort Hood,"72nd and Support Ave, Building 39008",Fort Hood,TX,76544,United States,http://crossfitforthood.blogspot.com/,(254) 466-7375,,
305,501,CrossFit Memphis,"7740A Trinity Road, Suite 109",Cordova,TN,38018,United States,http://factionsc.com/,(901) 246-9451,35.1413,-89.8045
306,502,CrossFit SkyBox,140 Dodd Ct. #B,American Canyon,CA,94503,United States,http://www.crossfitskybox.com,(707) 346-5001,38.1938,-122.2574
307,503,Body Armor CrossFit,"2411 Broadway, Ste B",San Antonio,TX,78215,United States,http://www.bodyarmorsa.com/,(210) 826-7070,29.4489,-98.4752
308,504,Roaring Fork CrossFit,40 Sunset Dr  #9,Basalt,CO,81621,United States,http://roaringforkcrossfit.com/,(970) 379-6309,39.3729,-107.0806
309,505,CrossFit New England,15 Tech Circle,Natick,MA,01760,United States,http://www.crossfitnewengland.com,(508) 808-4301,42.3148,-71.3348
310,506,CrossFit Koncepts,16720-16722 Oakmont Ave,Gaithersburg,MD,20877,United States,http://www.crossfitkoncepts.com/,(301) 404-2571,39.1308,-77.1748
311,510,CrossFit Jax,2593 Mayport Rd #105,Atlantic Beach,FL,32233,United States,http://www.crossfitjax.com/,(904) 853-6843,30.3588,-81.4124
312,511,CrossFit Athletes Arena,1019 Broad Stone Rd,Irmo,SC,29063,United States,http://crossfit.athletesarena.com/,(803) 750-9036,34.1415,-81.2376
313,514,Motor City CrossFit,35977 Mound Rd,Sterling Heights,MI,48310,United States,http://www.motorcitycrossfit.com,(586) 834-7282,42.5576,-83.049
314,516,CrossFit North Pacific,3142 Evergreen Way,Washougal,WA,98671,United States,http://www.crossfitcamas.com,(360) 833-0964,45.5784,-122.3382
315,517,Natural High CrossFit,"Southridge Village
RPO 40027",Okotoks,AB,T1S 2G2,Canada,http://naturalhigh.ca/natural-high-crossfit,(403) 995-3602,50.7181,-113.9837
316,518,Agoge CrossFit Woodinville,"19400 144th Ave NE, Unit A",Woodinville,WA,98072,United States,http://www.agogegym.com/,(425) 949-9645,47.7684,-122.1477
317,519,CrossFit Pottstown,263 King Street,Pottstown,PA,19464,United States,http://www.pottstownkarate.com,(484) 302-6188,40.2467,-75.6479
318,520,CrossFit Schaffhausen,Ebnatstrasse 65,Schaffhausen,Schaffhausen,8217,Switzerland,http://crossfitschaffhausen.ch/,(079) 279-8197,47.7075,8.644
319,521,CrossFit Skidrow,MCAS Camp Pendleton (Grassy Knoll),Oceanside,CA,92055,United States,http://www.crossfitskidrow.com/,,,
320,522,CrossFit Broad Ripple,"6542 Westfield Blvd, Suite 2",Indianapolis,IN,46220,United States,http://crossfitbroadripple.com/,(317) 695-3175,39.8749,-86.1412
321,524,CrossFit Salem,3589 Fairview Industrial Dr. S,Salem,OR,97302,United States,http://www.crossfitsalem.net/,(503) 931-7727,44.9029,-123.0162
322,526,Legend CrossFit,"115 Commerce St, Suite A",McCall,ID,83638,United States,http://www.legendcrossfit.com/,(208) 630-3870,44.8956,-116.0927
323,529,CrossFit Hillsboro,2074 NW Aloclek Dr. S. 411,Hillsboro,OR,97124,United States,http://www.pacpersonaltraining.com/subs/services_crossfit.html,(503) 747-7317,45.5345,-122.8964
324,530,Puget Sound CrossFit,125 NE 62nd Street,Seattle,WA,98115,United States,http://www.crossfitpugetsound.com/,(206) 778-2256,47.6734,-122.3271
325,532,CrossFit Empower,2083 Alma St #235,Vancouver,BC,V6R 4N6,Canada,http://www.crossfitempower.com/,(778) 873-4427,49.268,-123.1865
326,533,CrossFit Sweat Shop,"1401 Autocenter Drive, Suite A",Walnut Creek,CA,94597,United States,http://www.crossfitsweatshop.com/,(925) 818-1908,37.9227,-122.0621
327,537,Lumberjack CrossFit,"Bldg 10021, Central Ave",Fort Hood,TX,76544,United States,http://lumberjackcrossfit.blogspot.com/,(254) 289-0703,,
328,539,CrossFit CapOp,"2242A, Rue Lariviere",Montreal,QC,H2K 3T1,Canada,http://www.crossfitcapop.com/,(514) 596-1010,45.5301,-73.5573
329,541,CrossFit of Naperville,800 Frontenac Road,Aurora,IL,60504,United States,http://crossfitnaperville.com/,(630) 452-5148,41.7427,-88.2297
330,543,CrossFit Trussville,139 Railroad Street,Trussville,AL,35173,United States,http://www.crossfittrussville.com/,(205) 317-9526,33.6191,-86.6056
331,544,CrossFit Laval,1952 rue Le Chatelier,Laval,QC,H7L 5B3,Canada,http://www.crossfitlaval.ca,(450) 687-7348,45.5888,-73.7561
332,546,CrossFit Everett,"1302 Hewitt Ave, Unit E102",Everett,WA,98201,United States,http://crossfiteverett.com/,(425) 328-6941,47.9792,-122.2127
333,547,Reebok CrossFit Velocity,"Unit 4 Celtic Trade Park, Bruce Road, Fforestfach",Swansea,Wales,SA5 4EP,United Kingdom,http://reebokcrossfitvelocity.com/,447525018728,51.6447,-3.9975
334,549,SinCity CrossFit,958 Empire Mesa Way,Henderson,NV,89011,United States,http://sincitycrossfit.com,(702) 218-9864,36.0692,-115.0257
335,550,CrossFit Tallahassee,"504 Capital Circle SE, #8",Tallahassee,FL,32301,United States,http://www.crossfittallahassee.com/,(850) 566-3269,30.4382,-84.2286
336,552,CrossFit The Den,"943 Automation Way, Suite B",Medford,OR,97504,United States,http://www.crossfittheden.com/,(541) 292-2792,42.3623,-122.8784
337,553,Ultimate CrossFit,210 Rampart St Suite F,Charlotte,NC,28205,United States,http://www.ultimatecrossfit.com/,(704) 331-4815,35.2088,-80.8639
338,554,Desert CrossFit,"73-605 Dinah Shore Dr, Ste 1400N",Palm Desert,CA,92211,United States,http://desertcrossfit.com/,(760) 533-0642,33.7996,-116.382
339,556,PURE Fitness CrossFit,5230 53rd Ave,Red Deer,AB,T4N 5K2,Canada,http://www.purefitnessreddeer.com/,(403) 358-7873,52.2718,-113.8168
340,557,CrossFit Santa Clarita,25074 Kerry Robin Dr.,Santa Clarita,CA,91321,United States,http://www.fullforcecrossfit.com/,(805) 390-2001,34.3737,-118.5585
341,558,CrossFit Suffolk,5006 Veteran's Highway,Holbrook,NY,11741,United States,http://www.spartanperformance.com,(631) 747-6038,40.7766,-73.0716
342,560,CrossFit Hattiesburg,"28 Commercial Warehouse Drive, Suite 3",Hattiesburg,MS,39402,United States,http://crossfit-hattiesburg.com/,(601) 310-8821,31.3271,-89.2903
343,561,CrossFit Utah Valley,376 Commerce Loop,Orem,UT,84058,United States,http://www.crossfituv.com,(801) 900-3480,40.2907,-111.7273
344,562,CrossFit Copenhagen,Griffenfeldsgade 7A,Copenhagen N,Copenhagen,Denmark,Denmark,http://www.crossfitcopenhagen.dk/,004561304585,55.6889,12.5552
345,563,Next Generation CrossFit,7709 E 42nd Place Unit 116,Tulsa,OK,74145,United States,http://www.nextgenerationcrossfit.com,(918) 850-5069,36.1028,-95.8898
346,564,CrossFit London ON,353 Bathhurst St,London,ON,N6B 3K8,Canada,http://www.crossfitlondon.ca,(519) 518-3369,42.9821,-81.2405
347,565,CrossFit East County,"1810 John Towers Ave., Suite B",El Cajon,CA,92020,United States,http://www.crossfiteastcounty.com,(619) 709-1276,32.8204,-116.9796
348,566,Fireblock CrossFit,99 Harolds Way,Troy,OH,45373,United States,http://www.crossfittroy.com/,(937) 216-7387,40.0191,-84.1986
349,567,CrossFit Miami,5983 NW 102nd Avenue,Doral,FL,33178,United States,http://www.rippedfitnesscenter.com,(305) 418-8855,25.8278,-80.362
350,568,Cynergy CrossFit,23 Commercial Way,Hanson,MA,02341,United States,http://www.cynergycrossfit.com/,(617) 962-0257,42.053,-70.905
351,570,CrossFit Jackson,101 Executive Dr.,Jackson,TN,38305,United States,http://www.crossfitjackson.com/,(731) 215-0130,35.6706,-88.825
352,572,CrossFit Lorton,7402 A Lockport Place,Lorton,VA,22079,United States,http://www.crossfitlorton.com,(571) 332-1995,38.7162,-77.1969
353,574,CrossFit Silicon Valley (SV),1345 The Alameda,San Jose,CA,95126,United States,http://www.crossfitsv.com,(888) 316-0110,37.3323,-121.9136
354,575,CrossFit A.P.E. (Ape),105 N Spring St,Klamath Falls,OR,97601,United States,http://www.crossfitape.com,(541) 281-0792,42.2287,-121.774
355,576,CrossFit Simi Valley,1816 Angus Ave.,Simi Valley,CA,93063,United States,http://www.crossfitsimi.com,(805) 432-5224,34.2708,-118.7019
356,577,The Cell CrossFit,29 Ontario Grove,Success,WA,6164,Australia,http://www.thecellcoach.com.au/,+61417977699,-32.1302,115.8439
357,578,MaD CrossFit,58 Victoria Street,Petone,Lower Hutt,5011,New Zealand,http://www.madcrossfit.com,(021) 266-4264,-41.2226,174.8753
358,579,CrossFit Lions,1212 Welch Street,North Vancouver,BC,V7P 1L4,Canada,http://www.crossfitlions.com,(604) 839-0296,49.3177,-123.1084
359,580,CrossFit NorWest,7-9 Kenthurst Road,Dural,NSW,2158,Australia,http://www.crossfitnorwest.com/,(041) 512-6542,-33.6931,151.0212
360,581,CrossFit Avalanche,"7011 National Avenue, Unit 4",Tahoe Vista,CA,96148,United States,http://crossfitavalanche.com/,(530) 546-7703,39.247,-120.0486
361,582,Natural Strength CrossFit,781 Notre Dame Drive,Kamloops,BC,V2C 5N8,Canada,http://www.tcstrength.com/,(250) 318-0672,50.6633,-120.3601
362,587,Sea to Sky CrossFit,TBD,Squamish,BC,,Canada,http://www.crossfitbridgeport.com/,(604) 999-5462,49.7016,-123.1558
363,588,CrossFit X-Factor,2202 NW Roosevelt Street,Portland,OR,97210,United States,http://www.crossfitxfactor.com,(503) 830-9700,45.5382,-122.697
364,589,CrossFit Phoenix Fire,323 n 4th ave,phoenix,AZ,85003,United States,http://www.crossfitpfd.typepad.com/,(602) 494-4806,,
365,590,CrossFit Marquette,625 Co Rd HQ,Marquette,MI,49855,United States,http://www.crossfit-marquette.com/,(906) 273-0696,46.5519,-87.4615
366,591,CrossFit Coral Gables,1404 NW 88th Ave,Doral,FL,33172,United States,http://www.iamcrossfit.com,(786) 999-5497,25.7857,-80.3389
367,592,Choice City CrossFit,3060 Lake Canal Ct.,Fort Collins,CO,80524,United States,http://choicecitycrossfit.com,(970) 420-5566,40.5836,-105.0223
368,593,Central Bucks CrossFit,"1800  Mearns Rd, Unit MM and NN",Warminster,PA,18974,United States,http://www.centralbuckscrossfit.com/,(215) 262-9789,40.1951,-75.0889
369,595,Core CrossFit,902 E. McKinley,Phoenix,AZ,85006,United States,http://www.corecrossfit.com/,(602) 254-5301,33.457,-112.0618
370,599,CrossFit Steel Place,4575 Steel Place,Cincinnati,OH,45208,United States,http://www.cincinnatistrength.com/,(513) 910-5050,39.1586,-84.4158
371,600,CrossFit Invictus,1401 E. Street,San Diego,CA,92101,United States,http://www.crossfitinvictus.com,(619) 231-3000,32.7145,-117.1517
372,601,CrossFit Sioux Falls,3505 S Phillips Ave,Sioux Falls,SD,57105,United States,http://www.crossfitsiouxfalls.com/,(605) 274-3474,43.5135,-96.7262
373,602,Wine Country CrossFit,"818 Jackson St., Unit E",Napa,CA,94559,United States,http://www.winecountrycrossfit.com/,(707) 337-9441,38.3078,-122.2883
374,604,CrossFit Outer Banks,504 W. Lake Drive,Kill Devil Hills,NC,27948,United States,http://crossfitouterbanks.com/blog.htm,(252) 202-1878,35.9941,-75.6545
375,606,CrossFit West Chester,917 Old Fern Hill Road,West Chester,PA,19382,United States,http://www.crossfitwc.com/,(610) 864-8522,39.98,-75.5895
376,607,CrossFit Malaysia,"B-GF-23&23A, Block B, Merchant Square, No. 1 Jln Tropicana Selatan 1, PJU 3",Petaling Jaya,Selangor,47410,Malaysia,http://www.pushmore.com.my/,6012-3900684,3.1336,101.5987
377,610,CrossFit Springfield,1900 West Sunset,Springfield,MO,65807,United States,http://www.crossfit-springfield.com,(417) 881-7855,37.1661,-93.3178
378,611,CrossFit Frederick,5119 Pegasus Court Suite B,Frederick,MD,21704,United States,http://www.CrossFitFrederick.com,(240) 651-5981,39.3712,-77.4083
379,612,CrossFit Santa Cruz Central,2650 Research Park Drive,Soquel,CA,95073,United States,http://www.crossfitsantacruzcentral.com,(831) 454-6451,36.9836,-121.9683
380,614,CrossFit 801,650 E. Wilmington Avenue,Salt Lake City,UT,84106,United States,http://www.crossfit801.com,(801) 566-3048,40.7231,-111.8725
381,616,CrossFit Coeur D'Alene,301 N 4th Street,Coeur D'Alene,ID,83814,United States,http://www.crossfitcda.com/,(509) 998-3185,47.6753,-116.7814
382,619,CrossFit Montclair,19 Elm St.,Montclair,NJ,07042,United States,http://www.guerrillafitness.net/gym/montclair/,(973) 337-6538,40.8092,-74.2133
383,620,Capital CrossFit Dulles,23520 Overland Drive,Dulles,VA,20166,United States,False,(703) 346-8828,38.9624,-77.497
384,622,Brandt CrossFit,"300 Burnett St., Basement,",Fort Worth,TX,76102,United States,http://www.brandtcrossfit.com/blog/,(817) 291-0675,32.7533,-97.3364
385,623,CrossFit Taranis,3-933 Ellery Street,Victoria,BC,V9A 4R9,Canada,http://www.taranisathletics.com,(250) 590-8348,48.4373,-123.4009
386,624,CrossFit Quantico,"Marine Corps Systems Command
AC Programs, Cost & Analysis Branch
2200 Lester Street (Building 2211)",Quantico,VA,22134,United States,http://crossfitquantico.blogspot.com/,(817) 706-0532,,
387,625,CrossFit Santa Cruz,"2521 Mission St, Suite C",Santa Cruz,CA,95060,United States,http://www.crossfitsantacruz.com/,(831) 421-2065,36.96,-122.0502
388,626,CrossFit Scotland,Unit 11/13 Mackintosh Place South newmoor,Irvine,Ayrshire,KA11 4JT,United Kingdom,http://www.basixgym.com/pink_basix/flashintro.htm,07771648001,55.608,-4.6422
389,627,CrossFit Tri-Cities,"761 N 17th Street, Suite 29",St. Charles,IL,60174,United States,http://www.tricitiescrossfit.com/,(630) 492-0029,41.9196,-88.3353
390,628,CrossFit Revolution,202 S. Moon Ave.,Brandon,FL,33511,United States,http://www.crossfitrevolution.typepad.com/,(813) 716-6717,27.9353,-82.2886
391,629,CrossFit Saskatoon,400-1222 Quebec Ave.,Saskatoon,SK,S7K 1V2,Canada,http://www.synergystrength.ca/,(306) 979-9348,52.1454,-106.6633
392,630,MBS CrossFit,10900 W 120th Ave,Broomfield,CO,80023,United States,http://www.mbscrossfit.com,(720) 434-6282,39.9141,-105.1179
393,631,CrossFit Redding,5211 Churn Creek,Redding,CA,96001,United States,http://www.crossfitredding.com,(530) 244-1348,40.5371,-122.3478
394,633,CrossFit Playground,52 Upton Road,Colchester,CT,06415,United States,http://www.crossfitplayground.com/,(860) 680-5583,41.5787,-72.3469
395,634,CrossFit Asheville,438 Haywood Road,Asheville,NC,28806,United States,http://www.crossfitasheville.com/,(828) 335-0882,35.5772,-82.5813
396,635,CrossFit 305,5940 NE 4th Ave.,Miami,FL,33137,United States,http://crossfit305.com,(305) 809-6390,25.8306,-80.1882
397,636,RedPoint CrossFit,5213 Raeford Rd #101,Fayetteville,NC,28304,United States,http://redpointcrossfit.com/,(910) 868-7625,35.041,-78.9662
398,638,CrossFit Castle Rock,3196 Industrial Way,Castle Rock,CO,80109,United States,http://www.crossfitcastlerock.com/,(720) 810-7191,39.4088,-104.872
399,639,CrossFit SWFFT,1 Pennsylvaniastraße,Vaihingen-Stuttgart,Badem Wurtemburg,70569,Germany,http://www.swfft.com,+49 7116805999,,
400,640,CrossFit Murfreesboro,"831 Park Avenue, Suite A",Murfreesboro,TN,37128,United States,http://www.CrossFitMurfreesboro.com,(615) 904-5683,35.8379,-86.3972
401,643,CrossFit West Houston,8716 Longpoint Rd Suite 212,Houston,TX,77077,United States,http://www.crossfitwesthouston.com/,(832) 900-9637,29.8032,-95.5035
402,644,CrossFit St George,"1449 North 1400 West, Unit 6",St George,UT,84737,United States,http://www.crossfitstgeorge.com/,(435) 275-2214,37.1336,-113.614
403,645,CrossFit Renegade,Unit 6 6468 King George Blvd,Surrey,BC,V3W 4Z3,Canada,http://www.crossfitrenegade.com/home.html,(604) 765-7457,49.1204,-122.8447
404,646,Guardian CrossFit,"2703 Martin Luther King Jr. Avenue, SE",Washington,DC,20593-7000,United States,http://guardiancrossfit.wordpress.com/,(415) 290-9408,,
405,648,CrossFit CenterMass,333 Shrewsbury St,Worcester,MA,01604,United States,http://www.crossfitcentermass.com,(508) 335-9902,42.2693,-71.7787
406,649,CrossFit Riverside,7899 Mission Grove Parkway South,Riverside,CA,92508,United States,http://www.crossfitriverside.com,(951) 616-8106,33.9095,-117.3285
407,650,Brethren CrossFit,375 Tennant Avenue,Morgan Hill,CA,95037,United States,http://www.brethrencrossfit.com/,(408) 390-3890,37.1163,-121.6378
408,651,CrossFit Waco,418 S 8th Street,Waco,TX,76706,United States,http://www.CrossFitWaco.com,(254) 755-0228,31.5518,-97.1313
409,652,CrossFit Bogota,Cra 13 #86A-51,Bogota,,,Colombia,http://www.crossfitbogota.com/,+57 (1) 766-4118,4.6711,-74.0527
410,653,CrossFit Proper,430 Princeland Court,Corona,CA,92879,United States,http://www.crossfitproper.com/,(951) 316-3323,33.8847,-117.5615
411,654,CrossFit Strong,4755 McEwen Road,Dallas,TX,75244,United States,http://www.crossfitstrong.com,(214) 575-9581,32.9289,-96.8274
412,655,CrossFit Rebellion,3029 6th Ave S,Birmingham,AL,35233,United States,http://www.crossfitrebellion.com/,(205) 422-0721,33.5138,-86.7855
413,656,Arden Hills Swimming CrossFit,1220 Arden Hills Ln,Sacramento,CA,94864,United States,http://www.cfkahswim.typepad.com/,(916) 761-7599,,
414,657,CrossFit The Club,1221 E. 5800 S.,Ogden,UT,84405,United States,http://crossfittheclub.com/,(801) 388-0587,41.157,-111.9501
415,658,CrossFit 27:17,"513 Liberty Road, Suite 2A",Flowood,MS,39232,United States,http://www.crossfit2717.com/,(601) 540-6917,32.3411,-90.0788
416,659,King County CrossFit,292-296 SW 43rd St,Renton,WA,98057,United States,http://www.kingcrossfit.com/,(206) 499-4499,47.4411,-122.2216
417,660,CrossFit New Hampshire,399 Willow Street,Manchester,NH,03103,United States,http://www.crossfitnewhampshire.com/,(603) 782-8230,42.9797,-71.4617
418,664,CrossFit Jaguar,9509 N. Trask Street,Tampa,FL,33624,United States,http://www.crossfitjaguar.com/,(813) 908-6464,28.0377,-82.5211
419,666,CrossFit Apex,"665 Forman Rd., #104 & 105",Souderton,PA,18964,United States,http://www.crossfitapex.com/,(215) 723-2790,40.2896,-75.348
420,667,CrossFit Triumph,28342 US Hwy 19 N,Clearwater,FL,33761,United States,http://www.crossfittriumph.net/,(727) 255-2722,28.0299,-82.739
421,668,CrossFit Jupiter,713 Commerce Way #41,Jupiter,FL,33458,United States,http://www.crossfitjupiter.com/,(561) 346-9011,26.9267,-80.1206
422,669,CrossFit Dallas Central,5626 Fondren Drive,Dallas,TX,75206-7552,United States,http://www.dallascrossfit.com,(979) 220-3089,32.8444,-96.7709
423,671,Reebok CrossFit Reading,"Headley Park 10, Headley Road East Unit 16",Woodley,Berkshire,RG5 4SW,United Kingdom,http://www.reebokcrossfitreading.co.uk/,0044 0751 369 004,51.4541,-0.8991
424,673,CrossFit 951,"29723 New Hub Dr, Suite G",Menifee,CA,92586,United States,http://www.crossfit951.com/,(805) 215-9444,33.6886,-117.1768
425,675,CrossFit Run Jump Lift,372 Lackawanna Pl.,South Orange,NJ,07079,United States,http://www.runjumplift.com/,(973) 452-6850,40.7403,-74.2649
426,677,Northwest CrossFit Bellevue,"13420 NE 16th Street, Suites C & D",Bellevue,WA,98005,United States,http://www.nwcrossfitbellevue.com/,(206) 234-8347,47.6244,-122.1618
427,678,Mochara CrossFit,125 Main St,Newcastle,Co. Down,BT33 0LX,Ireland,False,02890 233387,,
428,680,CrossFit Stillwater,4515 Territory Lane,Stillwater,OK,74075,United States,http://www.crossfitstillwater.blogspot.com/,(405) 533-1071,36.138,-97.12
429,681,Hudson Valley CrossFit,186 White Schoolhouse Road,Rhinebeck,NY,12572,United States,http://www.hudsonvalleycrossfit.com/,(845) 876-6760,41.9329,-73.8562
430,682,Razor's Edge Fitness-CrossFit Pensacola,42 E. Garden Street,Pensacola,FL,32502,United States,http://www.razorsedgefitness.com/,(850) 485-2461,30.4134,-87.2141
431,683,CrossFit San Rafael,2240 4th St,San Rafael,CA,94901,United States,http://tjsgym.com/tj-s-gym-crossfit-san-rafael,(415) 456-1610,37.9767,-122.5509
432,684,OG CrossFit,42148 East View Way,Murrieta,CA,92562,United States,http://www.crossfitbyoverload.com/,(951) 660-0041,33.5747,-117.2424
433,685,CrossFit North Vancouver,2455 Dollarton Highway Unit 116,North Vancouver,BC,V7H 0A2,Canada,http://crossfitnorthvancouver.com/,(604) 341-0836,49.3065,-123.0086
434,686,CrossFit West Vancouver,1431 Clyde Ave,West Vancouver,BC,V7W 2P5,Canada,http://www.crossfitbc.com,(604) 683-2446,49.3288,-123.1551
435,687,CrossFit MCAS Yuma,MCAS Yuma,Yuma,AZ,85369,United States,http://www.yumafit.com,,,
436,688,CrossFit Canton,857 Hickory Flats Hwy Ste A,Canton,GA,30115,United States,http://www.crossfitcanton.com,(770) 633-4111,34.224,-84.4804
437,689,PFC CrossFit,"8840 W Russell Rd, Suite 230",Las Vegas,NV,89148,United States,http://pfccrossfit.com/,(702) 647-1126,36.0855,-115.2844
438,691,CrossFit Clout,1250 N. Simms St. # 103,Lakewood,CO,80401,United States,http://www.crossfitclout.com/,(303) 274-6595,39.7354,-105.1273
439,692,Poseidon CrossFit,Joint Base Pearl Harbor,Hickam,HI,96818,United States,http://www.poseidoncrossfit.com/,(619) 708-5753,,
440,694,CrossFit South City,3283 Ivanho,St.Louis,MO,63139,United States,http://www.crossfitsouthcity.com/,(314) 322-2330,38.6036,-90.3043
441,695,CrossFit Lehigh Valley,1855 Weaversville Road,Allentown,PA,18109,United States,http://www.crossfitlehighvalley.com/crossfit-lehigh-valley-swim-program,(610) 266-1044,40.6675,-75.4304
442,696,CrossFit Belltown,3025 1st Ave,Seattle,WA,98121,United States,http://www.crossfitbelltown.com/,(206) 420-6314,47.6182,-122.3549
443,697,Centerville CrossFit,923 Senate Dr.,Centerville,OH,45459,United States,http://www.centervillecrossfit.com/,(937) 216-6756,39.6352,-84.1835
444,698,CrossFit 915 West,"6250 Modesta Rd, Suite B",El Paso,TX,79932,United States,http://crossfit915west.com/,(915) 345-2901,31.8811,-106.5932
445,699,CrossFit Brevard,"234 South Broad Street, Unit A",Brevard,NC,28712,United States,http://www.crossfitbrevard.com/,(828) 553-7860,35.2315,-82.7358
446,700,CrossFit Gotham,605 N Macquesten Pkwy,Mount Vernon,NY,10552,United States,http://www.crossfitgotham.com,(917) 575-6336,40.9237,-73.8414
447,701,CrossFit Vero Beach,"760 8th Court, Suite 4",Vero Beach,FL,32962,United States,http://www.crossfitverobeach.com/,(772) 584-3745,27.6139,-80.3882
448,702,Bulldog CrossFit,1520 Hannah Ave,Forest Park,IL,60310,United States,http://bulldogbootcamp.com/get-started-with-crossfit/,(866) 966-3966,41.8585,-87.8088
449,704,CrossFit Combat Fitness,5075 N Cedar Ave,Fresno,CA,93710,United States,http://www.crossfitcombatfitness.com/,(559) 708-0977,36.8098,-119.7556
450,705,CrossFit Midland,5204 N Lamesa Rd,Midland,TX,79705,United States,http://www.crossfitmidland.com,(432) 312-8769,32.0537,-102.0823
451,706,CrossFit Ignite,"33 South Maple Ave, Unit C",Park Ridge,NJ,07656,United States,http://crossfitignite.com/,(973) 879-1210,41.0308,-74.0383
452,707,CrossFit Brighton Fire,425 S Main St,Brighton,CO,80601,United States,http://crossfitbrightonfire.org/,(303) 500-2145,,
453,708,IMT CrossFit,12309 SW 131 Ave,Miami,FL,33186,United States,http://imtcrossfit.net/,(305) 233-9348,25.6535,-80.4059
454,710,Naturally CrossFit,1007 Leander Drive,Leander,TX,78641,United States,False,(512) 507-1418,30.5658,-97.8451
455,711,CrossFit Mass,1630 Osgood Street,North Andover,MA,01845,United States,http://www.crossfitmass.com/,(978) 494-0606,42.7321,-71.1133
456,713,CrossFit Imperial Valley,505 Industry Way,Imperial,CA,92251,United States,http://crossfitimperialvalley.com/,(760) 355-1900,32.8284,-115.5795
457,715,CrossFit Versus,7 Conover Place,Little Silver,NJ,07739,United States,http://www.crossfitversus.com/,(732) 933-1500,40.3262,-74.0388
458,716,CrossFit FTF,349 N Minnewawa,Clovis,CA,93612,United States,False,(916) 470-3782,36.8367,-119.7083
459,717,Alternative Athletics CrossFit,808 4th Ave N,Billings,MT,59101,United States,http://alternativeathletics.com,(619) 540-6022,45.7953,-108.4862
460,718,CrossFit Colosseum,222 Islington Ave Unit 4,Etobicoke,ON,M8V 3W7,Canada,http://www.crossfitcolosseum.com,(416) 948-7204,43.6054,-79.5072
461,720,CrossFit Yaletown,1240 Richards Street,Vancouver,BC,V6B 3G2,Canada,http://www.crossfitbc.com,(604) 683-2446,49.2753,-123.1248
462,721,CrossFit BC,1240 Richards Street,Vancouver,BC,V6B 3G2,Canada,http://www.crossfitbc.com,(604) 683-2446,49.2753,-123.1248
463,723,CrossFit Twin Cities,5610 International Parkway,New Hope,MN,55428,United States,http://www.crossfittc.com/,(763) 746-0629,45.0549,-93.3969
464,724,CrossFit Hawaii,883 Mission Lane,Honolulu,HI,96813,United States,http://www.crossfithawaii.com/,(808) 256-5665,21.3031,-157.8574
465,725,BeltLine CrossFit,"1101 Juniper Street NE, #802",Atlanta,GA,30309,United States,http://www.fitnessbattalion.com,(404) 926-6295,33.7849,-84.3815
466,729,CrossFit Fort Myers,"12601 Metro Pkwy., Ste. #3",Fort Myers,FL,33966,United States,http://www.crossfitfortmyers.com,(239) 223-4255,26.5596,-81.8521
467,730,CrossFit Excel,"1433 Moffat Blvd, Ste. 1",Manteca,CA,95336,United States,http://crossfitexcel.com/WOD/,(209) 249-9929,37.7876,-121.2029
468,733,CrossFit Connection,845 Harrington Court Unit 5 & 6,Burlington,ON,L7N 3P3,Canada,http://www.crossfitconnection.com,(905) 639-5050,43.3672,-79.7728
469,734,CrossFit Cherry Point,MCAS Cherry Point,Havelock,NC,28532,United States,http://www.crossfitcherrypoint.com,(252) 571-9812,,
470,735,CrossFit New Zealand (NZ),19 Thomas Peacock Place,St Johns,Auckland,1072,New Zealand,http://www.crossfitnz.co.nz/,0508 CRSSFT,-36.8851,174.8515
471,736,CrossFit Milford,"49 Research Drive, Unit B",Milford,CT,06460,United States,http://www.crossfitmilford.com,(203) 376-8107,41.239,-73.0177
472,738,Chandler CrossFit,24215 S 122nd Street,Chandler,AZ,85249,United States,http://www.chandlercrossfit.com,(480) 206-3410,33.2272,-111.8196
473,739,SJP CrossFit,72 Spring St,Danvers,MA,01923,United States,http://www.sjp-crossfit.blogspot.com/,(617) 791-2390,,
474,742,CrossFit Leiftime Fitness,6056 E Baseline Rd # 129,Mesa,AZ,85206,United States,http://www.crossfitleiftimefitness.com,(480) 269-3481,33.3842,-111.7162
475,743,CrossFit FireFighters,,,CA,,United States,http://crossfitfire.typepad.com/,(714) 573-6836,,
476,746,CrossFit Queens,25-50 31st St.,Astoria,NY,11102,United States,http://crossfitqueensny.com/,(718) 340-3603,40.7694,-73.9189
477,747,CrossFit X,2031 Grant Street,Bellingham,WA,98225,United States,http://www.crossfitx.com/,(360) 223-2051,48.7576,-122.4697
478,749,No Excuses Athletics CrossFit,305 Shawnee N Drive Ste 600,Suwanee,GA,30024,United States,http://www.noexcusesathletics.com,(770) 380-7033,34.0446,-84.0576
479,750,CrossFit Willow Glen,95 Phelan #5,San Jose,CA,95112,United States,http://www.crossfitwillowglen.com,(408) 605-2772,37.3127,-121.8685
480,751,CrossFit North East England,West 15 Whickam View,Newcastle upon Tyne,Tyne and Wear,NE15 6UN,United Kingdom,http://crossfitnee.typepad.com,077 384 30990,54.9735,-1.6746
481,753,CrossFit Lineage,7525-72A Street NW,Edmonton,AB,T6B1Z3,Canada,http://www.crossfitlineage.com/,(780) 982-2802,53.5113,-113.4396
482,755,Harbor City CrossFit,5145 Commercial Drive,Melbourne,FL,32940,United States,http://harborcitycrossfit.com,(321) 600-0902,28.1928,-80.6669
483,756,CrossFit Peru,Centro Naval de San Borja. Ave. San Luis block 24,San Borja,Lima,,Peru,http://www.CrossFitPeru.com,(511) 447-1510,-12.0973,-76.9951
484,757,CrossFit Zone,708 Pembroke St,Victoria,BC,V8T 1H8,Canada,http://www.crossfitzone.ca,(250) 380-9392,48.4327,-123.3645
485,758,BodyLab CrossFit,2300 S. College Ave,Bryan,TX,77801,United States,http://www.thebodylab.net/,(979) 218-5528,30.647,-96.3649
486,759,Go CrossFit,209 10th Ave S #149,Nashville,TN,37203,United States,http://gocrossfit.com/main/,(615) 251-1500,36.1547,-86.7822
487,760,Crossfit Pickering,"1734 Orangebrook Court
Unit 1",Pickering,ON,L1W 1L9,Canada,http://www.crossfitpickering.com,(416) 451-6214,43.8309,-79.0642
488,762,CrossFit PEI,49 Pownal St.,Charlottetown,PE,C1A 1L4,Canada,http://www.crossfitpei.ca,(902) 894-4400,46.2319,-63.1278
489,763,CrossFit Mansfield,105 & 107 West Dallas Street,Mansfield,TX,76063,United States,http://www.crossfitmansfield.com,(817) 995-0954,33.9285,-118.2494
490,767,CrossFit East Decatur,185 Laredo Drive,Decatur,GA,30030,United States,http://www.crossfiteastdecatur.com/,(404) 371-1355,33.7805,-84.2681
491,770,LoneStar CrossFit,12046 Potranco,San Antonio,TX,78253,United States,http://www.lonestarcrossfit.com/,(210) 461-8672,29.4331,-98.7216
492,771,CrossFit South Philly,744 South 11th Street,Philadelphia,PA,19147,United States,http://www.crossfitsouthphilly.com/,(215) 983-1515,39.941,-75.161
493,772,Potomac CrossFit,1320 N Courthouse Rd,Arlington,VA,22201,United States,http://www.potomaccrossfit.com,(703) 493-0238,38.8889,-77.0838
494,773,Viking CrossFit,350 West 800 North,Orem,UT,84057,United States,http://www.vikingcrossfit.com/,(801) 899-3594,40.3121,-111.7065
495,774,CrossFit Wyre Forest,"Unit 3a
Bewdley Business Park
Long Bank",Bewdley,Worcs,DY121JB,United Kingdom,http://www.crossfitwyreforest.com/,07866634898,52.3661,-2.3578
496,775,Ludington CrossFit,311 S. Rath Ste. 102,Ludington,MI,49431,United States,http://www.ludingtoncrossfit.com,(231) 357-4328,43.9534,-86.4492
497,776,Goulburn Valley CrossFit,52b Mitchell Street,Shepparton,VIC,3630,Australia,http://www.goulburnvalleycrossfit.com/,+0409 224 495,-36.3819,145.4201
498,779,CrossFit Missoula,1290-B South 3rd Street West,Missoula,MT,59801,United States,http://www.crossfitmissoula.com/,(406) 396-4069,46.8673,-114.0158
499,781,CrossFit Ann Arbor,"670 Airport Blvd., Suite 3",Ann Arbor,MI,48108,United States,http://www.hyperfitusa.com/,(734) 730-0188,42.232,-83.7429
500,783,CrossFit Atlanta,200 Permalume Pl. NW,Atlanta,GA,30318,United States,http://www.crossfitatlanta.com,(404) 268-7800,33.8019,-84.4285
501,784,CrossFit Boston,100 Holton Street,Brighton,MA,02135,United States,http://www.crossfitboston.com/,(617) 963-0384,42.3599,-71.1378
502,785,CrossFit Calgary,#17 141 Crowfoot Way NW,Calgary,AB,T3G 4B7,Canada,http://www.crossfitcalgary.ca/,(403) 202-5559,51.1258,-114.2079
503,786,CrossFit Central,6205-A Burnet Rd.,Austin,TX,78757,United States,http://www.crossfitcentral.com/,(512) 791-7215,30.3372,-97.739
504,788,CrossFit Champions,"17575 North Eldridge Parkway, Suite C",Tomball,TX,77377,United States,http://www.crossfitchampions.com/,(281) 826-2321,30.0222,-95.6095
505,789,CrossFit Chicago,"1444 W. Willow, Suite R",Chicago,IL,60642,United States,http://www.crossfitchicago.com/,(773) 281-0411,41.9143,-87.6633
506,790,CrossFit Chula Vista,821 Kuhn Dr. Suite 106,Chula Vista,CA,91914,United States,http://www.crossfitchulavista.com/,(619) 934-9934,32.6533,-116.9673
507,791,CrossFit DC,1507 U St NW,Washington,DC,20009,United States,http://www.crossfitdc.com/,(202) 450-6432,38.9173,-77.035
508,792,CrossFit Denver,1380 South Sante Fe Drive,Denver,CO,80223,United States,http://www.crossfitdenver.com/,(720) 515-9348,39.6918,-104.9921
509,793,Diablo CrossFit,2447 Estand Way,Pleasant Hill,CA,94523,United States,http://www.diablocrossfit.com/,(925) 465-0015,37.9425,-122.0531
510,794,CrossFit DPL Vancouver Island,591 Ledsham rd.,Victoria,BC,V9C 1J9,Canada,http://crossfitdplvancouverisland.com/,(250) 391-8761,48.4356,-123.489
511,795,CrossFit East,4745 Dundee Circle,Jacksonville,FL,32210,United States,http://crossfiteast.com/action/index.php/,(904) 226-2288,,
512,798,CrossFit St. Pete,4055 35th St N Ste.100,St. Petersburg,FL,33714,United States,http://www.stpetecrossfit.com,(580) 284-0653,27.8088,-82.6811
513,799,CrossFit Cincinnati,6725 Montgomery Road,Cincinnati,OH,45236,United States,http://crossfitcincinnati.net/,(513) 351-0600,39.1901,-84.4098
514,801,CrossFit Threshold,8771 SW 133rd St,Miami,FL,33176,United States,http://www.crossfitthreshold.com/,(305) 546-7368,25.6469,-80.3351
515,803,Treasure Coast CrossFit,"155 Sebastian Blvd, Suite 103",Sebastian,FL,32958,United States,http://www.treasurecoastcrossfit.com,(772) 584-9310,27.8073,-80.4688
516,805,Reebok CrossFit Ramsay,2010 2600 Portland St SE,Calgary,AB,T2G 4M6,Canada,http://reebokcrossfitramsay.com/,(403) 969-8362,51.0314,-114.0325
517,806,CrossFit Hollywood,"310 S. La Brea Ave, Ste C",Los Angeles,CA,90036,United States,http://www.crossfithollywood.com,(619) 981-2739,34.0685,-118.3437
518,808,CrossFit Grants Pass (GP),"337 Union Avenue, Suite D",Grants Pass,OR,97527,United States,http://www.crossfitgp.com,(541) 450-9588,42.4221,-123.3384
519,809,CrossFit Inferno,"4120 Horizon Ln., Unit A",San Luis Obispo,CA,93401,United States,http://www.crossfit-inferno.com,(805) 710-2019,35.2418,-120.6658
520,810,CrossFit Durham,410 West Geer Street,Durham,NC,27701,United States,http://www.crossfitdurham.com/,(571) 224-3706,36.004,-78.9005
521,814,CrossFit Lake Country,4439 Vettelson Rd,Hartland,WI,53029,United States,http://www.crossfitlakecountry.com/,(262) 227-3447,43.1007,-88.3653
522,815,Level 10 CrossFit,2628 Lincoln Blvd.,Oroville,CA,95965,United States,http://www.level10crossfit.com/,(530) 403-9866,39.5066,-121.5558
523,819,CrossFit Fairfax,2831 Dorr Ave,Fairfax,VA,22031,United States,http://www.crossfitfairfax.com/,(703) 626-0232,38.8774,-77.2337
524,820,CrossFit Flagstaff,1072 E. Old Canyon Ct,Flagstaff,AZ,86001,United States,http://crossfitflagstaff.com/,(928) 275-2175,35.1901,-111.6384
525,822,CrossFit Huntington Beach (HB),19400 Beach Blvd.,Huntington Beach,CA,92648,United States,http://crossfithb.com/,(714) 553-9226,,
526,825,CrossFit London UK,Arch 9 Malcolm Place,Bethnal Green,London,E2 0EU,United Kingdom,http://www.crossfitlondonuk.com/,07969922831,51.5274,-0.066
527,826,CrossFit Long Beach,2431 Orange Avenue,Signal Hill,CA,90755,United States,http://www.crossfitlongbeach.com/,(562) 492-6951,33.8016,-118.1765
528,827,CrossFit Las Vegas,7540 Dean Martin Dr. Ste 508,Las Vegas,NV,89139,United States,http://www.crossfitlasvegas.com/,(702) 900-2358,36.0526,-115.1829
529,828,CrossFit Los Angeles (LA),3201 Santa Monica Blvd.,Santa Monica,CA,90404,United States,http://www.crossfitla.com,(310) 260-9550,34.038,-118.4685
530,829,CrossFit Marina,"15541 Product Lane, Suite #1",Huntington Beach,CA,92647,United States,http://www.crossfitmarina.com/,(714) 720-7239,33.7364,-118.0281
531,830,CrossFit Melbourne,"First floor, 904 Glen Huntly Rd",Caulfield South,VIC,3162,Australia,http://www.crossfitmelbourne.com.au/,(040) 936-9748,-37.8876,145.0278
532,832,CrossFit Mikes Gym,32067 Via Vera,Bonsall,CA,92003,United States,http://www.mikesgym.org/,(760) 941-5852,33.2941,-117.1886
533,833,CrossFit Montreal,4850 Saint-Ambroise suite 100,Montreal,QC,H4C 3N8,Canada,http://crossfitmontreal.ca/,(514) 838-6073,45.4697,-73.5876
534,834,CrossFit Gymert,Vliet 5,5422 VV Gemert,Gemert 0,5422,Netherlands,http://www.crossfitgymert.nl/,0031-492-324967,51.5677,5.7096
535,835,CrossFit Newcastle,1 Stephen St Georgetown,Newcastle,NSW,2298,Australia,http://www.crossfitnewcastle.com.au,+0410 340 927,-32.9121,151.7311
536,836,CrossFit Seattle,7555 15th Ave NW,Seattle,WA,98117,United States,http://www.crossfitseattle.com,(206) 992-7330,47.6849,-122.3771
537,837,CrossFit NYC,50 West 28th Street,New York,NY,10001,United States,http://www.crossfitnyc.com/,(212) 731-2165,40.7457,-73.9901
538,838,CrossFit Oahu,556 Reed Lane,Honolulu,HI,96813,United States,http://www.crossfitoahu.com/locations/honolulu/,(808) 685-7630,21.302,-157.8607
539,839,CrossFit Oakland,1313 67th Street,Emeryville,CA,94608,United States,http://www.crossfitoakland.com/,(510) 985-0210,37.849,-122.2911
540,840,CrossFit Ocean City,10815 Grays Corner Rd. #A,Berlin,MD,21811,United States,http://www.crossfitoceancity.com/,(301) 771-1731,38.3467,-75.1847
541,841,CrossFit One World,33415 Western Ave,Union City,CA,94587,United States,http://crossfitoneworld.com/,(510) 324-8153,37.5955,-122.0327
542,845,CrossFit Lakeway,"1909 Ranch Rd 620 South, A & F",Austin,TX,78734,United States,http://crossfitlakeway.com/,(512) 689-3798,30.3448,-97.9657
543,846,Broward CrossFit,10412 W State Road 84 #104,Davie,FL,33324,United States,http://BrowardCrossFit.com,(954) 846-8666,26.1041,-80.2887
544,847,Atomic CrossFit,"12999 Murphy Road, I-1",Stafford,TX,77477,United States,http://www.atomiccrossfit.com/,(281) 794-6698,29.6352,-95.5631
545,848,CrossFit Performance,"85 Mill Plain Road, Suite G",Fairfield,CT,06824,United States,http://www.crossfitperformance.com/,(203) 550-0041,41.1423,-73.2643
546,850,CrossFit Richardson,970 N Coit Rd #3073,Richardson,TX,75080,United States,http://www.crossfitrichardson.com,(972) 234-1376,32.9614,-96.7687
547,851,CrossFit Paragon,3907 Green Industrial Way,Chamblee,GA,30341,United States,http://www.crossfitparagon.com/,(770) 458-2775,33.9072,-84.2983
548,853,CrossFit Virtuosity,98 Bayard Street,Brooklyn,NY,11222,United States,http://crossfitvirtuosity.com/,(646) 279-6072,40.719,-73.9481
549,855,CrossFit Bolton,"77 Pillsworth Road, Unit 2",Bolton,ON,L7E 4G4,Canada,http://www.crossfitbolton.com/,(416) 561-5055,43.851,-79.7024
550,856,CrossFit Palm Bay,"200 Ring Ave NE, Unit 109",Palm Bay,FL,32911,United States,http://www.crossfitpalmbay.com/,(321) 508-9141,28.0015,-80.6303
551,857,CrossFit WTBN,27241 Garand Rd,Quantico,VA,22134,United States,http://crossfitwtbn.blogspot.com/,(703) 898-6426,,
552,859,CrossFit Butcher's Lab,"Staldgade 22, Meatpacking District",Copenhagen,Copenhagen,1699,Denmark,http://www.crossfitbutcherslab.dk/,+45 40590080,55.6683,12.5623
553,861,CrossFit Moncton,359 Baig Blvd.,Moncton,NB,E1C 3L5,Canada,http://www.crossfitmoncton.com/,(506) 962-0710,46.0744,-64.831
554,862,CrossFit Fugazi,2224 Forbes St,Jacksonville,FL,32204,United States,False,(386) 299-4030,30.3136,-81.6858
555,863,Eugene CrossFit,499 Valley River Center Dr,Eugene,OR,97402,United States,http://www.ecrossfit.com,(541) 653-6299,44.069,-123.11
556,864,CrossFit Katy,1315 West Grand Parkway South #110A,Katy,TX,77494,United States,http://www.crossfitkaty.com,(281) 827-2668,29.7606,-95.7747
557,866,CrossFit Tucson,3820 S Palo Verde Rd,Tucson,AZ,85714,United States,http://www.crossfittucson.com,(520) 807-2011,32.1774,-110.9182
558,867,Poplar Bluff CrossFit,2301 West Maud St.,Poplar Bluff,MO,63901,United States,http://pbstrength.com/pbstrength.com/Home.html,(573) 772-0373,36.7624,-90.4227
559,868,CrossFit Mid-County,1111 Canal Avenue,Nederland,TX,77627,United States,http://crossfitmidcounty.com/,(409) 656-2802,29.984,-94.0015
560,870,CrossFit Pittsburgh,6595 Hamilton Avenue,Pittsburgh,PA,15206,United States,http://crossfitpittsburgh.com/,(412) 992-6347,40.4582,-79.911
561,871,CrossFit Colorado Springs,3875 Vicksburg Terrace,Colorado Springs,CO,80917,United States,http://www.coloradospringscrossfit.com/,(719) 330-3583,38.8881,-104.7242
562,872,CrossFit Portland,418 NE 8th Street,Portland,OR,97227,United States,http://www.crossfitportland.com/,(503) 939-4839,45.5259,-122.6576
563,875,CrossFit Rockford,8174 Commerce Dr,Loves Park,IL,61111-5710,United States,http://crossfitrockford.com/,(815) 566-9066,42.3226,-88.9565
564,876,CrossFit Sacramento,1146 Fulton Ave,Sacramento,CA,95825,United States,http://www.crossfitsacramento.com/,(916) 622-7766,38.5859,-121.4015
565,878,CrossFit San Diego Weekend Warriors,PO Box 16007,San Diego,CA,92176,United States,http://www.crossfitweekendwarriors.com/,(619) 446-8945,,
566,879,CrossFit San Jose,"1610 Dell Ave., Suite A & S",Campbell,CA,95008,United States,http://www.crossfitsj.com/,(408) 781-0554,37.2624,-121.9559
567,880,CrossFit Santiago,Andes #2072,Santiago Centro,Santiago,,Chile,http://www.crossfitsantiago.com/,229429477,-33.4329,-70.666
568,884,CrossFit Stamford,75 Selleck Street,Stamford,CT,06902,United States,http://www.crossfitstamford.com/,(203) 554-4171,41.0406,-73.5503
569,885,CrossFit Sydney,32 McCauley Street,Alexandria,NSW,2015,Australia,http://www.crossfitsydney.com.au/,(041) 455-2429,-33.9026,151.1986
570,886,North Shore CrossFit,121 Liberty Street,Danvers,MA,01960,United States,http://www.northshorecrossfit.com,(978) 777-1270,42.5432,-70.9215
571,887,CrossFit Torii Beach,,Okinawa,Okinawa,,Japan,http://crossfittoriibeach.blogspot.com/,644-4334,,
572,888,CrossFit Toronto,24 Industrial St.,East York,ON,M4G 1Y9,Canada,http://www.crossfitto.com/,(647) 351-6336,43.7081,-79.3591
573,889,CrossFit Vancouver,1980 Clark Drive,Vancouver,BC,V5N 0A9,Canada,http://crossfitvancouver.com/,(604) 253-1261,49.2672,-123.0773
574,891,CrossFit Whistler,1-1345 Alpha Lake Road,Whistler,BC,V0N 1B1,Canada,http://www.crossfitwhistler.com/,(604) 935-2500,50.089,-123.0379
575,892,Team CrossFit Academy,205 W. Duarte Road,Monrovia,CA,91016,United States,http://www.TeamCrossFitAcademy.com,(626) 437-8739,34.1326,-118.0032
576,893,CrossFit North Queensland,"Unit 7, 197 Ingham Rd, West End",Townsville,QLD,4810,Australia,http://crossfitnq.com.au/,(042) 311-0175,-19.266,146.7866
577,894,CrossFit Westside,672 Leg In Boot Square,Vancouver,BC,V6Z 4B5,Canada,http://www.crossfitwestside.com/,(604) 763-2414,49.2674,-123.119
578,895,Get Built Chattanooga CrossFit,301 West Main Street,Chattanooga,TN,37408,United States,http://www.getbuiltchattanoogacrossfit.com/,(423) 240-5355,35.0352,-85.3041
579,897,Bayou City CrossFit,3622 Golf Street,Houston,TX,77018,United States,http://www.bayoucitycrossfit.com/,(806) 881-7242,29.8205,-95.4242
580,898,Triangle CrossFit,10113 Division Dr,Raleigh,NC,27603,United States,http://www.trianglecrossfit.com,(919) 600-9396,35.6346,-78.7116
581,900,CrossFit Unleashed,5115 W. Knox St.,Tampa,FL,33634,United States,http://www.crossfitu.com,(813) 363-5907,28.0068,-82.532
582,904,CrossFit Fife,14 C ELGIN INDUSTRIAL EST,DUNFERMLINE,Scotland,,United Kingdom,http://CROSSFITFIFE.COM,07988638902,56.0717,-3.4522
583,906,Cardinal CrossFit,1806 E. Main Street,Richmond,VA,23223,United States,http://www.crossfitcapitolhill.com,(202) 744-6725,37.5329,-77.4273
584,909,Reebok CrossFit FirePower,"705 Nipissing Rd,",Milton,ON,L9T 4Z5,Canada,http://www.crossfitreebokfirepower.com/,(905) 864-9941,43.5214,-79.8674
585,910,Gateway CrossFit,507 South Hanley Road,Clayton,MO,63105,United States,http://www.gatewaycrossfit.com,(314) 374-6725,38.6437,-90.3349
586,912,CrossFit Pentagon,Pentagon Athletic Center. 6606 Army Pentagon,Washington,DC,20310,United States,http://crossfitpentagon.com/,(703) 680-1142,,
587,914,CrossFit 321,62 Park Drive,Topsham,ME,04086,United States,http://www.crossfit321.com,(207) 729-8200,43.9339,-69.9772
588,915,CrossFit York,147 West Philadelphia Street,York,PA,17401,United States,http://www.crossfityork.com/,(443) 538-1147,39.963,-76.7313
589,918,CrossFit Costa Mesa,766 St. Clair,Costa Mesa,CA,92626,United States,http://www.crossfitcostamesa.com/,(949) 500-8062,33.6776,-117.889
590,919,CrossFit Hyperformance,904 E 70th St.,Savannah,GA,31405,United States,http://www.crossfithyperformance.com/,(912) 541-0530,32.0269,-81.0946
591,920,CrossFit Culver City,9000 Washington Blvd.,Culver City,CA,90232,United States,http://allianceculvercity.com/programs/crossfit/,(310) 558-8400,34.0256,-118.3905
592,921,Front Range CrossFit,"1338 South Valentia St, Unit 182",Denver,CO,80247,United States,http://www.frontrangecrossfit.com/,(303) 919-4673,39.6922,-104.8901
593,926,Rainier CrossFit,"13716 24th St. E, Ste 106",Sumner,WA,98390,United States,http://www.rainiercrossfit.com/,(253) 686-9994,47.2356,-122.2477
594,927,Colorado State Patrol CrossFit,,Danvers,MA,,United States,http://www.csp.state.co.us/academyhome.cfm.html,(303) 273-1733,,
595,928,San Francisco CrossFit,"1162 Gorgas Avenue, 
The Presidio of San Francisco",San Francisco,CA,94129,United States,http://www.sanfranciscocrossfit.com/,(415) 350-9761,37.8023,-122.4507
596,929,The Pit CrossFit,1106 East Grand Ave. Suite C,Arroyo Grande,CA,93420,United States,http://www.thepit.tv/,805 748-3297,35.12,-120.5964
597,931,CrossFit Charlotte,"9535 Monroe Road, Suite 100",Charlotte,NC,28270,United States,http://www.crossfitcharlotte.com/,(704) 519-6693,35.1449,-80.7372
598,932,CrossFit Edina,7399 Bush Lake Road,Edina,MN,55439,United States,http://crossfitmn.com/,(952) 942-1190,44.8682,-93.3597
599,933,CrossFit Brisbane,47 Clarence St,Coorparoo,QLD,4151,Australia,http://www.crossfitbrisbane.com,61 7 3324 2663,-27.49,153.0536
600,934,CrossFit Oldtown,805 North Royal Street,Alexandria,VA,22314,United States,http://www.crossfitoldtown.com/,(267) 250-0835,38.8129,-77.0418
601,935,Outlaw CrossFit,727 North Henry Street,Alexandria,VA,22314,United States,http://outlawcrossfit.com/,(571) 224-5458,38.8134,-77.0493
602,937,CrossFit Thousand Oaks,763 E. Thousand Oaks Blvd.,Thousand Oaks,CA,91360,United States,http://www.crossfitthousandoaks.com/,(805) 496-2077,34.1795,-118.8643
603,938,CrossFit Eastvale,"5379 Hamner Avenue, # 802",Eastvale,CA,91752,United States,http://www.crossfitie.typepad.com/,(760) 902-0542,33.9887,-117.5584
604,939,CrossFit Columbus,1080 Steelwood Rd.,Columbus,OH,43212,United States,http://www.roguecolumbus.com/,(614) 358-6190,39.996,-83.0359
605,940,CrossFit Rochester,3750 Monroe Ave,Pittsford,NY,14534,United States,http://www.crossfitrochester.com/,(585) 202-7295,43.0971,-77.5253
606,942,CrossFit Marin,412 Tamal Plaza,Corte Madera,CA,94925,United States,http://www.crossfitmarin.com/,(415) 927-1630,37.9359,-122.5205
607,947,CrossFit Port Saint Lucie,"574 NW Mercantile Pl, Suite 103",Port Saint Lucie,FL,34986,United States,http://www.crossfitportsaintlucie.com/,(772) 985-4014,27.3327,-80.4091
608,948,Crossfit Fort Benning,Building 2818 Way Street,Fort Benning,GA,31905,United States,http://www.crossfitfortbenning.com,(706) 326-2057,,
609,949,CrossFit The Rock,100 North Oceanside Rd.,Rockville Centre,NY,11570,United States,http://www.crossfittherock.com/,(516) 852-2209,40.6583,-73.6304
610,950,CrossFit Dieppe,1569 Melanson Rd,Dieppe,NB,E1A 7N9,Canada,http://crossfitdieppe.ca/,(506) 388-4838,46.0771,-64.685
611,952,CrossFit Asia,2-33-30 Murokawa,Okinawa City,Okinawa,904-0012,Japan,http://www.crossfitasia.com/,(098) 987-7754,26.3316,127.809
612,955,CrossFit Miramar,MCAS Miramar,San Diego,CA,97470,United States,http://xfitmiramar.com,(858) 947-8479,,
613,956,CrossFit Fort Meade,Fort George G. Meade,Odenton,MD,,United States,http://www.crossfitfortmeade.com/,(240) 373-0340,,
614,959,CrossFit New Orleans,4921 Airline Drive,Metairie,LA,70001,United States,http://crossfitneworleans.net/,(504) 669-5210,29.9765,-90.185
615,960,CrossFit Catalyst,88 White Oak Dr E,Sault Ste. Marie,ON,P6B 4J8,Canada,False,(705) 256-1344,46.5374,-84.3313
616,961,NorCal CrossFit Santa Clara,2541 Seaboard Ave.,San Jose,CA,95131,United States,http://cfnorcalsantaclara.com/,(408) 691-0430,37.3776,-121.9387
617,963,CrossFit Providence,425 Washington St,Providence,RI,02903,United States,http://www.crossfitprovidence.com,(508) 965-7180,41.8181,-71.423
618,964,CrossFit Griffintown,1362 William,Montreal,QC,H3C 1R5,Canada,http://www.lusine.ca,(514) 394-0707,45.4913,-73.5636
619,967,CrossFit Spokane Valley,12403 E. First Avenue,Spokane,WA,99216,United States,http://crossfitspokanevalley.com/,(509) 990-2000,47.6558,-117.2378
620,970,CrossFit Savannah,2021 Tennessee Ave,Savannah,GA,31404,United States,http://www.crossfitsavannah.org/,(912) 507-7106,32.0508,-81.0637
621,971,West Coast CrossFit,22/66 Roberts st,Osborne Park,WA,6017,Australia,http://www.sfgym.com.au/,001161864654777,-31.9079,115.8245
622,972,Panhandle CrossFit,226 Commercial Drive,Panama City,FL,32405,United States,http://www.panhandlecrossfit.com/,(850) 691-5150,30.1937,-85.6639
623,976,CrossFit Houston,716 Telephone Rd.,Houston,TX,77023,United States,http://www.crossfithouston.com/,(832) 265-8195,29.7342,-95.3316
624,977,Indy CrossFit,211 S Ritter Ave Suite G,Indianapolis,IN,46219,United States,http://www.indycrossfit.com/,(317) 847-5121,39.7674,-86.0729
625,979,Steel City CrossFit,1685 Main Street West,Hamilton,ON,L8S 1G5,Canada,http://www.steelcitycrossfit.com/,(905) 577-0626,43.257,-79.9342
626,980,Saint City CrossFit,"190 Carleton Drive, #103,",St Albert,AB,T8N0R8,Canada,http://www.saintcitycrossfit.com/,(780) 224-0435,53.6497,-113.5712
627,981,CrossFit Flathead,1896 Airport Road,Kalispell,MT,59901,United States,http://www.crossfitflathead.com/,(406) 755-9348,48.1774,-114.3099
628,982,CrossFit Dover,155-L Commerce Way,Dover,DE,19904,United States,http://crossfitdover.com/,(302) 242-5400,39.1534,-75.5501
629,984,CrossFit Manchester,"Pear Mill Industrial Estate, Stockport Road West, Lower Bredbury",Stockport,Greater Manchester,SK6 2BP,United Kingdom,http://crossfitmanchester.com/,07970 441171,53.4137,-2.1347
630,985,CrossFit Spokane,116 E Augusta Ave,Spokane,WA,99207,United States,http://crossfitspokane.blogspot.com/,(509) 328-3198,47.6725,-117.4086
631,987,CrossFit S.M.A.C,,Denver,CO,,United States,http://crossfitsmac.com,(303) 345-1608,,
632,988,Primal Fitness,219 M Street NW,Washington,DC,20001,United States,http://www.primal-fitness.com/,(202) 596-9348,38.9058,-77.0144
633,990,CrossFit RVA,"2522 Hermitage Rd, Suite D",Richmond,VA,23220,United States,http://www.crossfitrva.com/,(804) 313-9348,37.5673,-77.4617
634,991,CrossFit Tulsa,4707 S 102nd East Avenue,Broken Arrow,OK,74146,United States,http://www.crossfittulsa.typepad.com/,(918) 361-6707,36.0945,-95.8623
635,994,CrossFit Evolution,"851 E State Rd 434, Suite 208",Longwood,FL,32750,United States,http://www.CrossFitEvolution.com,(321) 202-3716,28.6993,-81.3326
636,995,Northwest CrossFit (NW),2001 15th Ave W,Seattle,WA,98119,United States,http://www.nwcrossfit.com/,(425) 417-2015,47.6372,-122.377
637,998,Elite CrossFit,16719 Pawlin Dr,Selma,TX,78154,United States,http://www.elite-crossfit.com,(210) 657-9348,29.5924,-98.2958
638,999,CrossFit Malvern Prep,418 S. Warren Ave.,Malvern,PA,19355,United States,http://www.malvernstrength.typepad.com/,(570) 780-4376,,
639,1000,Element CrossFit,1 - 3330 Ridgeway Drive,Mississauga,ON,L5L 5Z9,Canada,http://www.elementcrossfit.com,(416) 618-5255,43.5214,-79.7009
640,1001,Red River CrossFit,2539 E. 70th St.,Shreveport,LA,71106,United States,http://www.redrivercrossfit.com,(318) 402-2452,32.4484,-93.6984
641,1002,CrossFit HardCore West,7251 N. State Road 7,Parkland,FL,33073,United States,False,(954) 426-5300,26.3236,-80.2033
642,1006,CrossFit Southeast Queensland,2/9 Trade Street,Ormiston,QLD,4160,Australia,http://www.hg.typepad.com,+610424059312,-27.5211,153.2569
643,1008,Practice CrossFit,99 Harolds Way,Troy,OH,45373,United States,http://www.gopractice.biz,(937) 875-5344,40.0191,-84.1988
644,1009,CrossFit Nordic,Hälsingegatan 47,Odenplan,Stockholm,11331,Sweden,http://www.crossfitnordic.se/,0046850904291,59.3457,18.0405
645,1011,CrossFit Namur,"Avenue Albert Premier, 3",Erpent,Namur,5000,Belgium,http://www.crossfitnamur.be/,0471 13 28 9,50.4593,4.8505
646,1013,Centennial CrossFit,"7939 E. Arapahoe Rd., Suite 100c",Greenwood Village,CO,80112,United States,http://www.centennialcrossfit.com/,(303) 981-1851,39.5963,-104.8979
647,1017,CrossFit San Leandro,"2450 Alvarado St, #2",San Leandro,CA,94577,United States,http://www.crossfitsl.net/,(510) 895-1392,37.7123,-122.1555
648,1018,CrossFit 1st State,"118 Sleepy Hollow Drive, Suite 3",Middletwon,DE,19709,United States,http://www.crossfitfirststate.com,(302) 242-5400,39.4529,-75.7321
649,1019,Southern Maryland CrossFit,"54 Industrial Park Dr., Unit 20",Waldorf,MD,20602,United States,http://www.southernmarylandcrossfit.com,(301) 885-6597,38.6131,-76.913
650,1021,Black and Gold CrossFit,Arvin Gym,West Point,NY,10996,United States,http://blackandgoldcrossfit.blogspot.com/,(845) 938-4307,,
651,1022,CrossFit 9,2727 6th Avenue S,St. Petersburg,FL,33712,United States,http://crossfit9.com/,(727) 687-2866,27.7649,-82.6706
652,1023,CrossFit Endeavor,"5040 Nike Dr, Suite D",Hilliard,OH,43026,United States,http://endeavordcf.com/crossfit/,(614) 219-9225,39.9939,-83.145
653,1024,CrossFit Ellsworth,,Ellsworth AFB,SD,57706,United States,http://www.crossfitellsworth.blogspot.com/,(864) 710-2977,,
654,1025,CrossFit Balboa,943 Newhall St,Costa Mesa,CA,92627,United States,http://www.crossfitbalboa.com/,(949) 945-4160,33.6342,-117.9379
655,1028,CrossFit C2E,1 Commercial Drive,Florida,NY,10921,United States,http://www.crossfitc2e.com/,(914) 456-0570,41.347,-74.3571
656,1031,CrossFit Hickory,51 14th Ave NE,Hickory,NC,28601,United States,http://www.crossfithickory.com,(828) 855-0210,35.7512,-81.3376
657,1032,CrossFit Thoroughbreds,11495 S. Cleveland Ave.,Fort Myers,FL,33907,United States,http://crossfitthoroughbreds.com/,(239) 851-3940,26.5728,-81.8705
658,1033,CrossFit Omaha,8938 L Street,Omaha,NE,68127,United States,http://crossfitomaha.com/,(402) 490-8280,41.2133,-96.0502
659,1034,CrossFit Turlock,"351 N Walnut, SP#12",Turlock,CA,95380,United States,http://www.turlockcrossfit.com/,(209) 485-0544,37.495,-120.8725
660,1035,BTB CrossFit,696-A Cleburne Terrace,Atlanta,GA,30306,United States,http://btbfitness.com/programs/crossfit/,(404) 688-0100,33.7727,-84.3538
661,1036,CrossFit Wake Forest,1600 Heritage Commerce Ct. Suite 107,Wake Forest,NC,27587,United States,http://www.crossfitwakeforest.com/,(919) 225-6782,35.9531,-78.5162
662,1037,CrossFit Maricopa,41600 W Smith-Enke Dr Ste 129,Maricopa,AZ,85138,United States,http://crossfitmaricopa.wordpress.com/,(480) 532-0067,33.0739,-112.0148
663,1038,CrossFit Park City,"2780 Rasmussen Rd. Ste B2, B3",Park City,UT,84098,United States,http://www.crossfitpc.com,(435) 615-2000,40.7479,-111.5643
664,1039,CrossFit CLE,2218 Superior Ave E,Cleveland,OH,44114,United States,http://www.clevelandcrossfit.com,(216) 373-0820,41.508,-81.6766
665,1040,Oceanside CrossFit,"4040 Calle Platino, Suite 120",Oceanside,CA,92057,United States,http://www.Oceansidecrossfit.com,(760) 579-9558,33.207,-117.2954
666,1041,CrossFit Syosset,140 Eileen Way,Syosset,NY,11791,United States,http://www.crossfitcentralli.com/,(516) 456-4312,40.804,-73.5198
667,1042,CrossFit Cleveland,1211 Allen Court,Cleveland,OH,44116,United States,http://www.crossfitcleveland.com,(216) 812-7841,41.4817,-81.8391
668,1043,CrossFit Legacy,1245 Wooster Road West,Barberton,OH,44203,United States,http://crossfitlegacy.com/,(330) 289-9602,41.0076,-81.6339
669,1045,CrossFit Virginia Beach (VB),"413 South Lynnhaven Rd
Suite 106",Virginia Beach,VA,23452,United States,http://www.crossfitvb.com/,(757) 348-8843,36.8268,-76.079
670,1050,FirstPower CrossFit,168 Columbia Way,Cedar City,UT,84721,United States,http://crossfitcedarcity.com/,(435) 572-0224,,
671,1052,CrossFit San Clemente,79 Via Pico Plaza,San Clemente,CA,92672,United States,http://www.crossfitsanclemente.com,(949) 361-9111,33.4373,-117.6236
672,1053,CrossFit Plymouth,"CrossFit Plymouth
Unit 71
Faraday Mill Business Park",Plymouth,Devon,PL4 0ST,United Kingdom,False,0044 7500 805480,50.3684,-4.1151
673,1055,CrossFit Camden,45 A Chris Drive,Kingsland,GA,31548,United States,http://www.crossfitcamden.com/,(912) 617-4408,30.7818,-81.6373
674,1056,CrossFit Garage,"110 Londonderry Court, Suite 122",Woodstock,GA,30188,United States,http://www.crossfitgarage.com/,(678) 654-7796,34.0808,-84.5014
675,1058,CrossFit Centurion,11349 Folsom Blvd.,Rancho Cordova,CA,95742,United States,http://www.crossfitcenturion.com,(916) 207-7600,38.6126,-121.2586
676,1060,CrossFit Rx,"328 Mell Ave, Suite C",Atlanta,GA,30307,United States,http://www.crossfitrx.com,(404) 849-2445,33.7632,-84.3375
677,1062,CrossFit Full Circle,1509 BELLEVILLE STREET,Richmond,VA,23230,United States,http://www.crossfitfullcircle.com/,(804) 784-7111,37.5713,-77.4747
678,1064,CrossFit Westcountry,"Unit 4, Tormohun House, Barton Hill Road",Torquay,Devon,TQ2 8JH,United Kingdom,http://crossfitwestcountry.com/,07725 898 400,50.4861,-3.5423
679,1066,CrossFit Halifax,91 Saskatoon Drive,Halifax,NS,B3M 4R8,Canada,http://www.crossfithfx.com/,(902) 880-3250,44.6919,-63.6929
680,1067,H.O.T.SIDE CrossFit,15434 S. 70th Court,Orland Park,IL,60462,United States,http://www.hotsidecf.com/,(773) 502-1773,41.6108,-87.7917
681,1068,CrossFit Strong and Real,46 Frunze Street,Kyiv,Kyiv City,,Ukraine,http://cfsr.com.ua/,380674806428,50.4729,30.4981
682,1069,CrossFit Stone Bay,"RR-1 Stone Bay, MCB Camp Lejeune",Sneads Ferry,NC,28542,United States,http://www.crossfitstonebay.com/,(909) 533-9592,,
683,1071,Mountain CrossFit,780 Kinner St,Castle Rock,CO,80104,United States,http://mountaincrossfit.com/,(303) 681-2622,39.3779,-104.8629
684,1073,Brass Ring CrossFit,578 Stephen F Austin Dr,Conroe,TX,77302,United States,http://www.brassringfitness.com/,(858) 688-5674,30.2536,-95.4298
685,1074,CrossFit Laredo,"11204 McPherson, Suite 107",Laredo,TX,78045,United States,http://crossfitlaredo.com/,(956) 334-7055,27.6162,-99.478
686,1075,CrossFit Arlington Heights (AH),12 W. College Dr. Unit A,Arlington Heights,IL,60004,United States,http://crossfitah.com/,(847) 431-4226,42.1307,-87.9833
687,1076,CrossFit NorthRidge,300 McFarland Blvd. NE,Northport,AL,35476,United States,http://crossfitnorthridge.net/,(205) 752-1201,33.2366,-87.5551
688,1079,CrossFit West Jax,7254 Golden Wing Rd #13-15,Jacksonville,FL,32244,United States,False,(904) 504-5852,30.2234,-81.7039
689,1080,CrossFit Retribution,61 John St,Westminster,MD,21157,United States,http://www.crossfitretribution.com/,(410) 775-0549,39.5783,-76.9951
690,1081,CrossFit 831,2351 Mission Street,Santa Cruz,CA,95060,United States,http://www.santacruzstudio831.com,(831) 247-2031,36.9611,-122.0479
691,1082,CrossFit Delaware Valley,575 Abbott Drive,Broomall,PA,19008,United States,http://www.crossfitdelawarevalley.com/,(484) 472-6356,39.9602,-75.3357
692,1084,SBS CrossFit,19D Highway #12,Steinbach,MB,R5G 1T1,Canada,http://www.stonebrookstrength.com/,(204) 371-9706,49.5301,-96.6911
693,1086,12 Labours CrossFit BWI,"501 McCormick Drive, Suite T-V",Hanover,MD,21061,United States,http://12labourscrossfitbwi.com/,(301) 233-2558,39.1614,-76.6724
694,1087,CrossFit Chesapeake,1009 Scenic Parkway Suite E,Chesapeake,VA,23323,United States,http://www.crossfitchesapeake.com/,(757) 410-0707,36.7148,-76.317
695,1088,CrossFit Buffalo,3820 Union Rd,Cheektowaga,NY,14225,United States,http://crossfitbuffalo.com/,(716) 583-1011,42.9187,-78.7564
